[
      {
        "id": 16,
        "name": "شركة المحرك الكوري لقطع غيار السيارات",
        "location": {
            "state": "نهر النيل",
            "city": "عطبرة",
            "address": "المنطقة الصناعية الجديدة، شمال الجمارك"
        },
        "image": "amk.webp",
        "specialty": [
            "اسبيرات",
            "كوري"
        ],
        "phone": "+249125300000",
        "whatsapp": "+249125300000",
        "isFeatured": true,
        "googleMapsUrl": "https://maps.google.com/?cid=14722023163094880331"
    },
      {
        "id": 320,
        "name": "شركة المركز الكوري لقطع غيار السيارات",
        "location": {
            "state": "الخرطوم",
            "city": "الخرطوم",
            "address": "شارع الحرية، ابو حمامة، جوار مدرسة العباسي"
        },
        "image": "amk2.webp",
        "specialty": [
            "اسبيرات",
            "كوري"
        ],
        "phone": "+249125700000",
        "whatsapp": "+249125700000",
        "isFeatured": true,
        "googleMapsUrl": "https://maps.app.goo.gl/KCVXg4NkzN7MLb3E8"
    },
    {
        "id": 1,
        "name": "المنصوري عون الله للاسبيرات والزيوت",
        "location": {
            "state": "نهر النيل",
            "city": "عطبرة",
            "address": "شمال السلاح الطبي"
        },
        "image": "mansori.webp",
        "specialty": [
            "اسبيرات","زيوت"
        ],
        "phone": "+249123015759",
        "whatsapp": "+249123015759",
        "isFeatured": true,
        "googleMapsUrl": "https://maps.google.com/?cid=9430769484930958962"
    },
    {
        "id": 2,
        "name": "ناجي حامد للمستوبيشي",
        "location": {
            "state": "نهر النيل",
            "city": "عطبرة",
            "address": "المنطقة القديمة"
        },
        "image": "najihamid.webp",
        "specialty": [
            "اسبيرات",
            "ياباني",
            "ميتسوبيشي"
        ],
        "phone": "+249114064054",
        "whatsapp": "+249114064054",
        "isFeatured": true,
        "googleMapsUrl": "https://maps.google.com/?cid=2881104869139878306"
    },
    {
        "id": 3,
        "name": "شركة القمة لقطع غيار السيارات",
        "location": {
            "state": "نهر النيل",
            "city": "عطبرة",
            "address": "المنطقة القديمة"
        },
        "image": "gima.webp",
        "specialty": [
            "اسبيرات"
        ],
        "phone": "+249922312877",
        "whatsapp": "+249922312877",
        "isFeatured": true,
        "googleMapsUrl": "https://maps.google.com/?cid=18056240766091671858"
    },
    {
        "id": 4,
        "name": "الركن الكوري للاسبيرات الكوريه",
        "location": {
            "state": "نهر النيل",
            "city": "عطبرة",
            "address": "شرق السلاح الطبي"
        },
        "image": "roknkory.webp",
        "specialty": [
            "اسبيرات",
            "كوري"
        ],
        "phone": "+249912379748",
        "whatsapp": "+249912379748",
        "isFeatured": true,
        "googleMapsUrl": "https://maps.google.com/?cid=8920283231660559371"
    },
    {
        "id": 5,
        "name": "ايهاب وهبي محمد حسين للاسبيرات",
        "location": {
            "state": "نهر النيل",
            "city": "عطبرة",
            "address": "شرق منتجع فال سيتي"
        },
        "image": "ihapwahpi.webp",
        "specialty": [
            "اسبيرات"
        ],
        "phone": "+249912396985",
        "whatsapp": "+249912396985",
        "isFeatured": true,
        "googleMapsUrl": "https://maps.google.com/?cid=5604136440900214766"
    },
    {
        "id": 6,
        "name": "الشيخ تيربو",
        "location": {
            "state": "نهر النيل",
            "city": "عطبرة",
            "address": ""
        },
        "image": "shopimg.webp",
        "specialty": [
            "تيربو"
        ],
        "phone": "+249900005109",
        "whatsapp": "+249900005109",
        "isFeatured": false,
        "googleMapsUrl": "https://maps.google.com/?cid=4251217122953847351"
    },
    {
        "id": 7,
        "name": "سباق الخيل للاسبيرات الكورية",
        "location": {
            "state": "نهر النيل",
            "city": "عطبرة",
            "address": ""
        },
        "image": "shopimg.webp",
        "specialty": [
            "اسبيرات","كوري"
        ],
        "phone": "nan",
        "whatsapp": "nan",
        "isFeatured": false,
        "googleMapsUrl": "https://maps.google.com/?cid=3196583127188338168"
    },
    {
        "id": 8,
        "name": "أبو نزار لقطع غيار المعدات الثقيلة",
        "location": {
            "state": "نهر النيل",
            "city": "عطبرة",
            "address": ""
        },
        "image": "shopimg.webp",
        "specialty": [
            "اسبيرات", "معدات ثقيلة"
        ],
        "phone": "+249911335314",
        "whatsapp": "+249911335314",
        "isFeatured": false,
        "googleMapsUrl": "https://maps.google.com/?cid=620909794792812139"
    },
    {
        "id": 9,
        "name": "شركة وادي الجندي فرع عطبرة",
        "location": {
            "state": "نهر النيل",
            "city": "عطبرة",
            "address": ""
        },
        "image": "shopimg.webp",
        "specialty": [
            "اسبيرات"
        ],
        "phone": "+249123824023",
        "whatsapp": "+249123824023",
        "isFeatured": false,
        "googleMapsUrl": "https://maps.google.com/?cid=5967037946272640717"
    },
    {
        "id": 10,
        "name": "العوتيب لقطع الغيار",
        "location": {
            "state": "نهر النيل",
            "city": "عطبرة",
            "address": ""
        },
        "image": "shopimg.webp",
        "specialty": [
            "اسبيرات"
        ],
        "phone": "nan",
        "whatsapp": "nan",
        "isFeatured": false,
        "googleMapsUrl": "https://maps.google.com/?cid=13479643969425636420"
    },
    {
        "id": 11,
        "name": "بيت الأصلي لقطع غيار هينو الاصلية",
        "location": {
            "state": "نهر النيل",
            "city": "عطبرة",
            "address": ""
        },
        "image": "shopimg.webp",
        "specialty": [
            "اسبيرات","هينو"
        ],
        "phone": "+249110222222",
        "whatsapp": "+249110222222",
        "isFeatured": false,
        "googleMapsUrl": "https://maps.google.com/?cid=2045681281382791344"
    },
    {
        "id": 12,
        "name": "فيكتور في لقطع الغيار الكورية",
        "location": {
            "state": "نهر النيل",
            "city": "عطبرة",
            "address": ""
        },
        "image": "shopimg.webp",
        "specialty": [
            "اسبيرات",
            "كوري"
        ],
        "phone": "nan",
        "whatsapp": "nan",
        "isFeatured": false,
        "googleMapsUrl": "https://maps.google.com/?cid=13699236335248125595"
    },
    {
        "id": 13,
        "name": "قرش لإسبيرات الركشات الأصلية",
        "location": {
            "state": "نهر النيل",
            "city": "عطبرة",
            "address": ""
        },
        "image": "shopimg.webp",
        "specialty": [
            "اسبيرات",
            "ركشات"
        ],
        "phone": "nan",
        "whatsapp": "nan",
        "isFeatured": false,
        "googleMapsUrl": "https://maps.google.com/?cid=6767091036303517513"
    },
    {
        "id": 14,
        "name": "مجاهد محي الدين ود العز للميتسوبيشي",
        "location": {
            "state": "نهر النيل",
            "city": "عطبرة",
            "address": ""
        },
        "image": "shopimg.webp",
        "specialty": [
            "اسبيرات",
            "ميتسوبيشي"
        ],
        "phone": "nan",
        "whatsapp": "nan",
        "isFeatured": false,
        "googleMapsUrl": "https://maps.google.com/?cid=12482632136836175896"
    },
    {
        "id": 15,
        "name": "أعمال يو بتول لقطع غيار السيارات",
        "location": {
            "state": "نهر النيل",
            "city": "عطبرة",
            "address": ""
        },
        "image": "shopimg.webp",
        "specialty": [
            "اسبيرات"
        ],
        "phone": "nan",
        "whatsapp": "nan",
        "isFeatured": false,
        "googleMapsUrl": "https://maps.google.com/?cid=9846480940473167669"
    },
    {
        "id": 17,
        "name": "الخطيب لاسبيرات المواتر",
        "location": {
            "state": "نهر النيل",
            "city": "عطبرة",
            "address": ""
        },
        "image": "shopimg.webp",
        "specialty": [
            "اسبيرات"
        ],
        "phone": "+249902747780",
        "whatsapp": "+24990274778",
        "isFeatured": false,
        "googleMapsUrl": "https://maps.google.com/?cid=13790571777359755410"
    },
    {
        "id": 18,
        "name": "شركه المتحده",
        "location": {
            "state": "نهر النيل",
            "city": "عطبرة",
            "address": ""
        },
        "image": "shopimg.webp",
        "specialty": [
            "اسبيرات"
        ],
        "phone": "+249911312370",
        "whatsapp": "+24991131237",
        "isFeatured": false,
        "googleMapsUrl": "https://maps.google.com/?cid=13238531712376547350"
    },
    {
        "id": 19,
        "name": "اعمال تبس التجارية لقطع الغيار",
        "location": {
            "state": "نهر النيل",
            "city": "عطبرة",
            "address": ""
        },
        "image": "shopimg.webp",
        "specialty": [
            "اسبيرات"
        ],
        "phone": "+249912971888",
        "whatsapp": "+249912971888",
        "isFeatured": false,
        "googleMapsUrl": "https://maps.google.com/?cid=16898509693870410640"
    },
    {
        "id": 20,
        "name": "الفخيم لزينة و اسبيرات السيارات",
        "location": {
            "state": "نهر النيل",
            "city": "بربر",
            "address": ""
        },
        "image": "shopimg.webp",
        "specialty": [
            "اسبيرات"
        ],
        "phone": "+249925920325",
        "whatsapp": "+249925920325",
        "isFeatured": false,
        "googleMapsUrl": "https://maps.google.com/?cid=9298583841084666435"
    },
    {
        "id": 21,
        "name": "ود ماجد للاسبيرات والزينه",
        "location": {
            "state": "نهر النيل",
            "city": "بربر",
            "address": ""
        },
        "image": "shopimg.webp",
        "specialty": [
            "اسبيرات"
        ],
        "phone": "nan",
        "whatsapp": "nan",
        "isFeatured": false,
        "googleMapsUrl": "https://maps.google.com/?cid=15858830806797943470"
    },
    {
        "id": 22,
        "name": "كمال بشير لقطع الغيار",
        "location": {
            "state": "نهر النيل",
            "city": "بربر",
            "address": ""
        },
        "image": "shopimg.webp",
        "specialty": [
            "اسبيرات",
            "زينة"
        ],
        "phone": "nan",
        "whatsapp": "nan",
        "isFeatured": false,
        "googleMapsUrl": "https://maps.google.com/?cid=14494289374290860173"
    },
    {
        "id": 23,
        "name": "الفنقلن لقطع الغيار",
        "location": {
            "state": "نهر النيل",
            "city": "بربر",
            "address": ""
        },
        "image": "shopimg.webp",
        "specialty": [
            "اسبيرات"
        ],
        "phone": "nan",
        "whatsapp": "nan",
        "isFeatured": false,
        "googleMapsUrl": "https://maps.google.com/?cid=1357776300224337131"
    },
    {
        "id": 24,
        "name": "ابو الشوش للاسبيرات",
        "location": {
            "state": "نهر النيل",
            "city": "بربر",
            "address": ""
        },
        "image": "shopimg.webp",
        "specialty": [
            "اسبيرات"
        ],
        "phone": "nan",
        "whatsapp": "nan",
        "isFeatured": false,
        "googleMapsUrl": "https://maps.google.com/?cid=10202687652552818803"
    },
    {
        "id": 25,
        "name": "اعمال الكات للاسبيرات وقطع غيار الهينو الاصليه",
        "location": {
            "state": "نهر النيل",
            "city": "بربر",
            "address": ""
        },
        "image": "shopimg.webp",
        "specialty": [
            "اسبيرات"
        ],
        "phone": "nan",
        "whatsapp": "nan",
        "isFeatured": false,
        "googleMapsUrl": "https://maps.google.com/?cid=7414255724014802703"
    },
    {
        "id": 26,
        "name": "بوارس للاسبيرات",
        "location": {
            "state": "نهر النيل",
            "city": "بربر",
            "address": ""
        },
        "image": "shopimg.webp",
        "specialty": [
            "اسبيرات"
        ],
        "phone": "nan",
        "whatsapp": "nan",
        "isFeatured": false,
        "googleMapsUrl": "https://maps.google.com/?cid=14131842613576049113"
    },
    {
        "id": 27,
        "name": "الحواشي للاسبيرات",
        "location": {
            "state": "نهر النيل",
            "city": "بربر",
            "address": ""
        },
        "image": "shopimg.webp",
        "specialty": [
            "اسبيرات"
        ],
        "phone": "nan",
        "whatsapp": "nan",
        "isFeatured": false,
        "googleMapsUrl": "https://maps.google.com/?cid=15525530393776669048"
    },
    {
        "id": 28,
        "name": "المنتصر لاسبيرات المواتر والركشات",
        "location": {
            "state": "نهر النيل",
            "city": "شندي",
            "address": ""
        },
        "image": "shopimg.webp",
        "specialty": [
            "اسبيرات"
        ],
        "phone": "nan",
        "whatsapp": "nan",
        "isFeatured": false,
        "googleMapsUrl": "https://maps.google.com/?cid=10702137479213931139"
    },
    {
        "id": 29,
        "name": "ابو عظمه للاسبيرات والزيوت",
        "location": {
            "state": "نهر النيل",
            "city": "شندي",
            "address": ""
        },
        "image": "shopimg.webp",
        "specialty": [
            "اسبيرات","زيوت"
        ],
        "phone": "+249960768073",
        "whatsapp": "+249960768073",
        "isFeatured": false,
        "googleMapsUrl": "https://maps.google.com/?cid=2673029631337819004"
    },
    {
        "id": 30,
        "name": "ود المدني للاسبيرات الكورية الاصلية",
        "location": {
            "state": "نهر النيل",
            "city": "شندي",
            "address": ""
        },
        "image": "shopimg.webp",
        "specialty": [
            "اسبيرات","كوري"
        ],
        "phone": "+249905764641",
        "whatsapp": "+249905764641",
        "isFeatured": false,
        "googleMapsUrl": "https://maps.google.com/?cid=4092607103041122721"
    },
    {
        "id": 31,
        "name": "الشيخ تيربو",
        "location": {
            "state": "نهر النيل",
            "city": "شندي",
            "address": "استاد شندي"
        },
        "image": "shopimg.webp",
        "specialty": [
            "تيربو"
        ],
        "phone": "nan",
        "whatsapp": "nan",
        "isFeatured": false,
        "googleMapsUrl": "https://maps.google.com/?cid=16959971832245440577"
    },
    {
        "id": 32,
        "name": "ابو فارس لاسبيرات السيارات",
        "location": {
            "state": "نهر النيل",
            "city": "شندي",
            "address": ""
        },
        "image": "shopimg.webp",
        "specialty": [
            "اسبيرات"
        ],
        "phone": "+249967532432",
        "whatsapp": "+249967532432",
        "isFeatured": false,
        "googleMapsUrl": "https://maps.google.com/?cid=2616258145608497212"
    },
    {
        "id": 33,
        "name": "المحمود لقطع غيار السيارات والزجاج",
        "location": {
            "state": "شمال كردفان",
            "city": "الأبيض",
            "address": ""
        },
        "image": "shopimg.webp",
        "specialty": [
            "اسبيرات",
            "زجاج"
        ],
        "phone": "+249912358038",
        "whatsapp": "+249912358038",
        "isFeatured": false,
        "googleMapsUrl": "https://maps.google.com/?cid=13742873604769353112"
    },
    {
        "id": 34,
        "name": "كامبي للاسبيرات",
        "location": {
            "state": "نهر النيل",
            "city": "شندي",
            "address": "جوار كفتريا ودالناظر"
        },
        "image": "shopimg.webp",
        "specialty": [
            "اسبيرات"
        ],
        "phone": "nan",
        "whatsapp": "nan",
        "isFeatured": false,
        "googleMapsUrl": "https://maps.google.com/?cid=16738310507200151331"
    },
    {
        "id": 35,
        "name": "الزيدابي للاطارات",
        "location": {
            "state": "نهر النيل",
            "city": "شندي",
            "address": ""
        },
        "image": "shopimg.webp",
        "specialty": [
            "اطارات"
        ],
        "phone": "+249123007593",
        "whatsapp": "+249123007593",
        "isFeatured": false,
        "googleMapsUrl": "https://maps.google.com/?cid=956023920033139034"
    },
    {
        "id": 36,
        "name": "شركة اعمال الامتياز المتكاملة",
        "location": {
            "state": "نهر النيل",
            "city": "شندي",
            "address": ""
        },
        "image": "shopimg.webp",
        "specialty": [
            "اسبيرات"
        ],
        "phone": "+249912341891",
        "whatsapp": "+249912341891",
        "isFeatured": false,
        "googleMapsUrl": "https://maps.google.com/?cid=9516163218108115171"
    },
    {
        "id": 37,
        "name": "شركة وادي الجندي المحدودة",
        "location": {
            "state": "الخرطوم",
            "city": "الخرطوم",
            "address": "شارع الخور"
        },
        "image": "shopimg.webp",
        "specialty": [
            "اسبيرات"
        ],
        "phone": "+249123824021",
        "whatsapp": "+249123824021",
        "isFeatured": false,
        "googleMapsUrl": "https://maps.google.com/?cid=16769503060177601887"
    },
    {
        "id": 38,
        "name": "اولاد شندي للاسبيرات",
        "location": {
            "state": "الخرطوم",
            "city": "أم درمان",
            "address": ""
        },
        "image": "shopimg.webp",
        "specialty": [
            "اسبيرات"
        ],
        "phone": "nan",
        "whatsapp": "nan",
        "isFeatured": false,
        "googleMapsUrl": "https://maps.google.com/?cid=3635536699982882668"
    },
    {
        "id": 39,
        "name": "أبو أنس للإسبيرات والزيوت",
        "location": {
            "state": "نهر النيل",
            "city": "شندي",
            "address": "المنطقة الصناعية"
        },
        "image": "shopimg.webp",
        "specialty": [
            "اسبيرات","زيوت"
        ],
        "phone": "nan",
        "whatsapp": "nan",
        "isFeatured": false,
        "googleMapsUrl": "https://maps.google.com/?cid=11393103922747478446"
    },
    {
        "id": 40,
        "name": "الناصية لقطع غيار السيارات",
        "location": {
            "state": "نهر النيل",
            "city": "شندي",
            "address": ""
        },
        "image": "shopimg.webp",
        "specialty": [
            "اسبيرات"
        ],
        "phone": "nan",
        "whatsapp": "nan",
        "isFeatured": false,
        "googleMapsUrl": "https://maps.google.com/?cid=11868457+249701054213"
    },
    {
        "id": 41,
        "name": "شاندونغ لقطع الغيار",
        "location": {
            "state": "الخرطوم",
            "city": "الخرطوم",
            "address": "شارع مدني"
        },
        "image": "shopimg.webp",
        "specialty": [
            "اسبيرات"
        ],
        "phone": "+249120602727",
        "whatsapp": "+249120602727",
        "isFeatured": false,
        "googleMapsUrl": "https://maps.google.com/?cid=13910475493125168281"
    },
    {
        "id": 42,
        "name": "ود البدوي للإسبيرات الكوريه",
        "location": {
            "state": "نهر النيل",
            "city": "شندي",
            "address": ""
        },
        "image": "shopimg.webp",
        "specialty": [
            "اسبيرات","كوري"
        ],
        "phone": "nan",
        "whatsapp": "nan",
        "isFeatured": false,
        "googleMapsUrl": "https://maps.google.com/?cid=9147169191771525975"
    },
    {
        "id": 43,
        "name": "ود ملاح للإطارات والزيوت",
        "location": {
            "state": "نهر النيل",
            "city": "شندي",
            "address": ""
        },
        "image": "shopimg.webp",
        "specialty": [
            "زيوت","اطارات"
        ],
        "phone": "+249906041174",
        "whatsapp": "+249906041174",
        "isFeatured": false,
        "googleMapsUrl": "https://maps.google.com/?cid=10054869217701303860"
    },
    {
        "id": 44,
        "name": "الرائد للاسبيرات الكورية واليابانية",
        "location": {
            "state": "كسلا",
            "city": "حلفا الجديدة",
            "address": ""
        },
        "image": "shopimg.webp",
        "specialty": [
            "اسبيرات","كوري"
        ],
        "phone": "+249917757402",
        "whatsapp": "+249917757402",
        "isFeatured": false,
        "googleMapsUrl": "https://maps.google.com/?cid=7904226240732975235"
    },
    {
        "id": 45,
        "name": "اسبيرات النيل",
        "location": {
            "state": "نهر النيل",
            "city": "الدامر",
            "address": ""
        },
        "image": "shopimg.webp",
        "specialty": [
            "اسبيرات"
        ],
        "phone": "+2491+24908272",
        "whatsapp": "+2491+24908272",
        "isFeatured": false,
        "googleMapsUrl": "https://maps.google.com/?cid=7689259088412268304"
    },
    {
        "id": 46,
        "name": "الهديه لاسبيرات السيارات",
        "location": {
            "state": "نهر النيل",
            "city": "الدامر",
            "address": ""
        },
        "image": "shopimg.webp",
        "specialty": [
            "اسبيرات"
        ],
        "phone": "nan",
        "whatsapp": "nan",
        "isFeatured": false,
        "googleMapsUrl": "https://maps.google.com/?cid=7979571417838995162"
    },
    {
        "id": 47,
        "name": "ود المهدى للاسبيرات",
        "location": {
            "state": "نهر النيل",
            "city": "الدامر",
            "address": ""
        },
        "image": "shopimg.webp",
        "specialty": [
            "اسبيرات"
        ],
        "phone": "nan",
        "whatsapp": "nan",
        "isFeatured": false,
        "googleMapsUrl": "https://maps.google.com/?cid=2159043495886790271"
    },
    {
        "id": 48,
        "name": "الرواد سنتر للاسبيرات الكورية والتايلندية",
        "location": {
            "state": "نهر النيل",
            "city": "الدامر",
            "address": ""
        },
        "image": "shopimg.webp",
        "specialty": [
            "كوري"
        ],
        "phone": "+249960442597",
        "whatsapp": "+249960442597",
        "isFeatured": false,
        "googleMapsUrl": "https://maps.google.com/?cid=5567697121042552091"
    },
    {
        "id": 49,
        "name": "التيسير للاسبيرات",
        "location": {
            "state": "نهر النيل",
            "city": "الدامر",
            "address": ""
        },
        "image": "shopimg.webp",
        "specialty": [
            "اسبيرات"
        ],
        "phone": "+249123206404",
        "whatsapp": "+249123206404",
        "isFeatured": false,
        "googleMapsUrl": "https://maps.google.com/?cid=9551808324360608299"
    },
    {
        "id": 50,
        "name": "ود ربيع لزينه السيارات",
        "location": {
            "state": "نهر النيل",
            "city": "الدامر",
            "address": ""
        },
        "image": "shopimg.webp",
        "specialty": [
            "زينة"
        ],
        "phone": "+249913630520",
        "whatsapp": "+24991363052",
        "isFeatured": false,
        "googleMapsUrl": "https://maps.google.com/?cid=881757825175738596"
    },
    {
        "id": 51,
        "name": "شركة النيلين للتراكترات",
        "location": {
            "state": "نهر النيل",
            "city": "الدامر",
            "address": ""
        },
        "image": "shopimg.webp",
        "specialty": [
            "تركترات"
        ],
        "phone": "+249999900533",
        "whatsapp": "+249999900533",
        "isFeatured": false,
        "googleMapsUrl": "https://maps.google.com/?cid=5625169337100484624"
    },
    {
        "id": 52,
        "name": "محلات ود الرفاعي للاسبيرات",
        "location": {
            "state": "نهر النيل",
            "city": "الدامر",
            "address": "المنطقة الصناعية"
        },
        "image": "shopimg.webp",
        "specialty": [
            "اسبيرات"
        ],
        "phone": "nan",
        "whatsapp": "nan",
        "isFeatured": false,
        "googleMapsUrl": "https://maps.google.com/?cid=13465411613500070950"
    },
    {
        "id": 53,
        "name": "ود جبريل بدر الدين لقطع الغيار",
        "location": {
            "state": "نهر النيل",
            "city": "الدامر",
            "address": ""
        },
        "image": "shopimg.webp",
        "specialty": [
            "اسبيرات"
        ],
        "phone": "+249912592661",
        "whatsapp": "+249912592661",
        "isFeatured": false,
        "googleMapsUrl": "https://maps.google.com/?cid=17297207998926652131"
    },
    {
        "id": 54,
        "name": "محلات عثمان البطحاني للزيوت والاسبيرات",
        "location": {
            "state": "نهر النيل",
            "city": "الدامر",
            "address": ""
        },
        "image": "shopimg.webp",
        "specialty": [
            "اسبيرات","زيوت"
        ],
        "phone": "nan",
        "whatsapp": "nan",
        "isFeatured": false,
        "googleMapsUrl": "https://maps.google.com/?cid=9578165368327138176"
    },
    {
        "id": 55,
        "name": "القرني لخدمات السيارات",
        "location": {
            "state": "نهر النيل",
            "city": "الدامر",
            "address": ""
        },
        "image": "shopimg.webp",
        "specialty": [
            "اسبيرات"
        ],
        "phone": "+249117044735",
        "whatsapp": "+249117044735",
        "isFeatured": false,
        "googleMapsUrl": "https://maps.google.com/?cid=9011167673514112837"
    },
    {
        "id": 56,
        "name": "الفاضلابي للاسبيرات",
        "location": {
            "state": "نهر النيل",
            "city": "الدامر",
            "address": ""
        },
        "image": "shopimg.webp",
        "specialty": [
            "اسبيرات"
        ],
        "phone": "nan",
        "whatsapp": "nan",
        "isFeatured": false,
        "googleMapsUrl": "https://maps.google.com/?cid=98516433252594170"
    },
    {
        "id": 57,
        "name": "ود البشرى لقطع الغيار الكورية",
        "location": {
            "state": "نهر النيل",
            "city": "الدامر",
            "address": ""
        },
        "image": "shopimg.webp",
        "specialty": [
            "كوري"
        ],
        "phone": "nan",
        "whatsapp": "nan",
        "isFeatured": false,
        "googleMapsUrl": "https://maps.google.com/?cid=9090070625988458911"
    },
    {
        "id": 58,
        "name": "أسامه عثمان لاسبيرات التايوتا والكوري",
        "location": {
            "state": "نهر النيل",
            "city": "العبيدية",
            "address": "جمارك العبيديه"
        },
        "image": "shopimg.webp",
        "specialty": [
            "اسبيرات","كوري","ياباني"
        ],
        "phone": "nan",
        "whatsapp": "nan",
        "isFeatured": false,
        "googleMapsUrl": "https://maps.google.com/?cid=6149655863194491668"
    },
    {
        "id": 59,
        "name": "وكالة التايوتا",
        "location": {
            "state": "نهر النيل",
            "city": "العبيدية",
            "address": ""
        },
        "image": "shopimg.webp",
        "specialty": [
            "اسبيرات","تويوتا"
        ],
        "phone": "+249918617181",
        "whatsapp": "+249918617181",
        "isFeatured": false,
        "googleMapsUrl": "https://maps.google.com/?cid=15630886570178754311"
    },
    {
        "id": 60,
        "name": "حمدتاج الدين عبدالماجد لقطع الغيار",
        "location": {
            "state": "نهر النيل",
            "city": "العبيدية",
            "address": ""
        },
        "image": "shopimg.webp",
        "specialty": [
            "اسبيرات"
        ],
        "phone": "+249925218798",
        "whatsapp": "+249925218798",
        "isFeatured": false,
        "googleMapsUrl": "https://maps.google.com/?cid=15147733616276879699"
    },
    {
        "id": 61,
        "name": "ودودة العالمية لقطع غيار السيارات الكورية الأصلية و اجزاء البودي",
        "location": {
            "state": "الخرطوم",
            "city": "أم درمان",
            "address": ""
        },
        "image": "shopimg.webp",
        "specialty": [
            "اسبيرات",
            "كوري"
        ],
        "phone": "+249124820323",
        "whatsapp": "+249124820323",
        "isFeatured": false,
        "googleMapsUrl": "https://maps.google.com/?cid=2028836322896705582"
    },
    {
        "id": 62,
        "name": "اولاد سعد لاسبيرات الهينو",
        "location": {
            "state": "نهر النيل",
            "city": "العبيدية",
            "address": ""
        },
        "image": "shopimg.webp",
        "specialty": [
            "اسبيرات"
        ],
        "phone": "+249964644089",
        "whatsapp": "+249964644089",
        "isFeatured": false,
        "googleMapsUrl": "https://maps.google.com/?cid=10310993377822918309"
    },
    {
        "id": 63,
        "name": "شركة وادي الجندي المحدودة",
        "location": {
            "state": "الخرطوم",
            "city": "الخرطوم",
            "address": "شارع الخور"
        },
        "image": "shopimg.webp",
        "specialty": [
            "اسبيرات"
        ],
        "phone": "+249123824021",
        "whatsapp": "+249123824021",
        "isFeatured": false,
        "googleMapsUrl": "https://maps.google.com/?cid=16769503060177601887"
    },
    {
        "id": 64,
        "name": "البركة لإسبيرات الهينو",
        "location": {
            "state": "نهر النيل",
            "city": "العبيدية",
            "address": ""
        },
        "image": "shopimg.webp",
        "specialty": [
            "اسبيرات",
            "هينو"
        ],
        "phone": "nan",
        "whatsapp": "nan",
        "isFeatured": false,
        "googleMapsUrl": "https://maps.google.com/?cid=8744271967540690776"
    },
    {
        "id": 65,
        "name": "عبدالله البطحاني لقطع الغيار",
        "location": {
            "state": "نهر النيل",
            "city": "العبيدية",
            "address": ""
        },
        "image": "shopimg.webp",
        "specialty": [
            "اسبيرات",
            "هينو"
        ],
        "phone": "nan",
        "whatsapp": "nan",
        "isFeatured": false,
        "googleMapsUrl": "https://maps.google.com/?cid=15361390881843638116"
    },
    {
        "id": 66,
        "name": "بيت الاصلي لقطع غيار هينو الاصلية",
        "location": {
            "state": "نهر النيل",
            "city": "العبيدية",
            "address": ""
        },
        "image": "shopimg.webp",
        "specialty": [
            "اسبيرات",
            "هينو"
        ],
        "phone": "nan",
        "whatsapp": "nan",
        "isFeatured": false,
        "googleMapsUrl": "https://maps.google.com/?cid=12519139236971450980"
    },
    {
        "id": 67,
        "name": "البركة لجميع اسبيرات الاليات الثقيله",
        "location": {
            "state": "نهر النيل",
            "city": "أبو حمد",
            "address": ""
        },
        "image": "shopimg.webp",
        "specialty": [
            "اسبيرات"
        ],
        "phone": "nan",
        "whatsapp": "nan",
        "isFeatured": false,
        "googleMapsUrl": "https://maps.google.com/?cid=8309338274824827712"
    },
    {
        "id": 68,
        "name": "الفاتح لاسبيرات الهينو",
        "location": {
            "state": "نهر النيل",
            "city": "أبو حمد",
            "address": ""
        },
        "image": "shopimg.webp",
        "specialty": [
            "اسبيرات"
        ],
        "phone": "nan",
        "whatsapp": "nan",
        "isFeatured": false,
        "googleMapsUrl": "https://maps.google.com/?cid=15786855979832803545"
    },
    {
        "id": 69,
        "name": "المحمود لقطع غيار السيارات والزجاج",
        "location": {
            "state": "شمال كردفان",
            "city": "الأبيض‎",
            "address": ""
        },
        "image": "shopimg.webp",
        "specialty": [
            "اسبيرات",
            "زجاج"
        ],
        "phone": "+249912358038",
        "whatsapp": "+249912358038",
        "isFeatured": false,
        "googleMapsUrl": "https://maps.google.com/?cid=13742873604769353112"
    },
    {
        "id": 70,
        "name": "البغدادي لقطع غيار السيارات ومعدات الورش",
        "location": {
            "state": "نهر النيل",
            "city": "أبو حمد",
            "address": ""
        },
        "image": "shopimg.webp",
        "specialty": [
            "اسبيرات",
            "معدات ورش"
        ],
        "phone": "+249123127353",
        "whatsapp": "+249123127353",
        "isFeatured": false,
        "googleMapsUrl": "https://maps.google.com/?cid=5264891226138727161"
    },
    {
        "id": 71,
        "name": "بكرى للاسبيرات والآليات الثقيله",
        "location": {
            "state": "نهر النيل",
            "city": "أبو حمد",
            "address": ""
        },
        "image": "shopimg.webp",
        "specialty": [
            "اسبيرات"
        ],
        "phone": "nan",
        "whatsapp": "nan",
        "isFeatured": false,
        "googleMapsUrl": "https://maps.google.com/?cid=18218162981443612992"
    },
    {
        "id": 72,
        "name": "أعمال ودالملاوي لاسبيرات اللوادر الصينيه",
        "location": {
            "state": "نهر النيل",
            "city": "أبو حمد",
            "address": ""
        },
        "image": "shopimg.webp",
        "specialty": [
            "اسبيرات"
        ],
        "phone": "+249925655551",
        "whatsapp": "+249925655551",
        "isFeatured": false,
        "googleMapsUrl": "https://maps.google.com/?cid=12978682017072756022"
    },
    {
        "id": 73,
        "name": "نميري محمد احمد للاسبيرات",
        "location": {
            "state": "نهر النيل",
            "city": "أبو حمد",
            "address": ""
        },
        "image": "shopimg.webp",
        "specialty": [
            "اسبيرات"
        ],
        "phone": "nan",
        "whatsapp": "nan",
        "isFeatured": false,
        "googleMapsUrl": "https://maps.google.com/?cid=13550723357839126947"
    },
    {
        "id": 74,
        "name": "مجموعه السليماني التجاريه",
        "location": {
            "state": "نهر النيل",
            "city": "أبو حمد",
            "address": ""
        },
        "image": "shopimg.webp",
        "specialty": [
            "اسبيرات"
        ],
        "phone": "nan",
        "whatsapp": "nan",
        "isFeatured": false,
        "googleMapsUrl": "https://maps.google.com/?cid=6127889565332776251"
    },
    {
        "id": 75,
        "name": "شركه الخندقاوي المتطوره المحدوده",
        "location": {
            "state": "نهر النيل",
            "city": "أبو حمد",
            "address": ""
        },
        "image": "shopimg.webp",
        "specialty": [
            "اسبيرات"
        ],
        "phone": "nan",
        "whatsapp": "nan",
        "isFeatured": false,
        "googleMapsUrl": "https://maps.google.com/?cid=9411790116956319005"
    },
    {
        "id": 76,
        "name": "ابوحجل لزينة واسبيرات الشاحنات",
        "location": {
            "state": "كسلا",
            "city": "كسلا",
            "address": ""
        },
        "image": "shopimg.webp",
        "specialty": [
            "اسبيرات","زينة","شاحنات"
        ],
        "phone": "+249123049455",
        "whatsapp": "+249123049455",
        "isFeatured": false,
        "googleMapsUrl": "https://maps.google.com/?cid=4104741865524012000"
    },
    {
        "id": 77,
        "name": "اسبيرات البركة",
        "location": {
            "state": "النيل الأبيض",
            "city": "ربك",
            "address": ""
        },
        "image": "shopimg.webp",
        "specialty": [
            "اسبيرات"
        ],
        "phone": "+249912483319",
        "whatsapp": "+249912483319",
        "isFeatured": false,
        "googleMapsUrl": "https://maps.google.com/?cid=2324538106138855342"
    },
    {
        "id": 78,
        "name": "فورج جروب الهندسية",
        "location": {
            "state": "نهر النيل",
            "city": "أبو حمد",
            "address": ""
        },
        "image": "shopimg.webp",
        "specialty": [
            "اسبيرات"
        ],
        "phone": "nan",
        "whatsapp": "nan",
        "isFeatured": false,
        "googleMapsUrl": "https://maps.google.com/?cid=4119239743293057631"
    },
    {
        "id": 79,
        "name": "ادم عصام للاسبيرات",
        "location": {
            "state": "شمال كردفان",
            "city": "الأبيض‎",
            "address": "شارع المنطقة الصناعيه"
        },
        "image": "shopimg.webp",
        "specialty": [
            "اسبيرات"
        ],
        "phone": "+249914988982",
        "whatsapp": "+249914988982",
        "isFeatured": false,
        "googleMapsUrl": "https://maps.google.com/?cid=14891939730475341930"
    },
    {
        "id": 80,
        "name": "ياسين الحاج لقطع غيار السيارات",
        "location": {
            "state": "شمال كردفان",
            "city": "الأبيض‎",
            "address": "المنطقه الصناعيه"
        },
        "image": "shopimg.webp",
        "specialty": [
            "اسبيرات"
        ],
        "phone": "+249122008044",
        "whatsapp": "+249122008044",
        "isFeatured": false,
        "googleMapsUrl": "https://maps.google.com/?cid=16394171151871313109"
    },
    {
        "id": 81,
        "name": "ود فضل لجميع أنواع اللبادات والجلود",
        "location": {
            "state": "شمال كردفان",
            "city": "الأبيض‎",
            "address": ""
        },
        "image": "shopimg.webp",
        "specialty": [
            "لبادات",
            "جلود"
        ],
        "phone": "+249912432423",
        "whatsapp": "+249912432423",
        "isFeatured": false,
        "googleMapsUrl": "https://maps.google.com/?cid=8678341934687786346"
    },
    {
        "id": 82,
        "name": "احمد ابوحراز لقطع الغيار",
        "location": {
            "state": "الجزيرة",
            "city": "ود مدني",
            "address": ""
        },
        "image": "shopimg.webp",
        "specialty": [
            "اسبيرات"
        ],
        "phone": "+249918100146",
        "whatsapp": "+249918100146",
        "isFeatured": false,
        "googleMapsUrl": "https://maps.google.com/?cid=16087293257861235478"
    },
    {
        "id": 83,
        "name": "اعمال عبدالله خيرالله للاسبيرات والزيوت واللساتك",
        "location": {
            "state": "نهر النيل",
            "city": "أبو حمد",
            "address": ""
        },
        "image": "shopimg.webp",
        "specialty": [
            "اسبيرات","زيوت"
        ],
        "phone": "+249922313322",
        "whatsapp": "+249922313322",
        "isFeatured": false,
        "googleMapsUrl": "https://maps.google.com/?cid=10239777149104280695"
    },
    {
        "id": 84,
        "name": "اب احمد لجميع إسبيرات الشيري و الكوري و الصيني",
        "location": {
            "state": "الخرطوم",
            "city": "الخرطوم",
            "address": ""
        },
        "image": "shopimg.webp",
        "specialty": [
            "كوري"
        ],
        "phone": "+249127251884",
        "whatsapp": "+249127251884",
        "isFeatured": false,
        "googleMapsUrl": "https://maps.google.com/?cid=6887949502364908831"
    },
    {
        "id": 85,
        "name": "ابوخالد للإسبيرات الكورية الأصلية",
        "location": {
            "state": "الجزيرة",
            "city": "المناقل",
            "address": ""
        },
        "image": "shopimg.webp",
        "specialty": [
            "كوري"
        ],
        "phone": "+249110889242",
        "whatsapp": "+249110889242",
        "isFeatured": false,
        "googleMapsUrl": "https://maps.google.com/?cid=1961394112822219314"
    },
    {
        "id": 86,
        "name": "ابو علي \"ود بيبو\" لقطع الغيار الاصلية",
        "location": {
            "state": "نهر النيل",
            "city": "أبو حمد",
            "address": ""
        },
        "image": "shopimg.webp",
        "specialty": [
            "اسبيرات"
        ],
        "phone": "+249927680428",
        "whatsapp": "+249927680428",
        "isFeatured": false,
        "googleMapsUrl": "https://maps.google.com/?cid=16159780796241630883"
    },
    {
        "id": 87,
        "name": "اسبيرات المريخ",
        "location": {
            "state": "البحر الأحمر",
            "city": "بورتسودان",
            "address": ""
        },
        "image": "shopimg.webp",
        "specialty": [
            "اسبيرات"
        ],
        "phone": "+249912361715",
        "whatsapp": "+249912361715",
        "isFeatured": false,
        "googleMapsUrl": "https://maps.google.com/?cid=4725033247233436377"
    },
    {
        "id": 88,
        "name": "شركة اسبيرات المحروس التجارية",
        "location": {
            "state": "البحر الأحمر",
            "city": "بورتسودان",
            "address": ""
        },
        "image": "shopimg.webp",
        "specialty": [
            "اسبيرات"
        ],
        "phone": "nan",
        "whatsapp": "nan",
        "isFeatured": false,
        "googleMapsUrl": "https://maps.google.com/?cid=6727361240753864862"
    },
    {
        "id": 89,
        "name": "ود امور لقطع غيار الشاحنات",
        "location": {
            "state": "البحر الأحمر",
            "city": "بورتسودان",
            "address": ""
        },
        "image": "shopimg.webp",
        "specialty": [
            "اسبيرات",
            "شاحنات"
        ],
        "phone": "nan",
        "whatsapp": "nan",
        "isFeatured": false,
        "googleMapsUrl": "https://maps.google.com/?cid=13754455661506767270"
    },
    {
        "id": 90,
        "name": "الصفا للاسبيرات اليابانية فرع بورتسودان",
        "location": {
            "state": "البحر الأحمر",
            "city": "بورتسودان",
            "address": ""
        },
        "image": "shopimg.webp",
        "specialty": [
            "اسبيرات",
            "ياباني"
        ],
        "phone": "+249912851271",
        "whatsapp": "+249912851271",
        "isFeatured": false,
        "googleMapsUrl": "https://maps.google.com/?cid=7967308415658938856"
    },
    {
        "id": 91,
        "name": "أعمال بشير كدابه التجارية",
        "location": {
            "state": "البحر الأحمر",
            "city": "بورتسودان",
            "address": ""
        },
        "image": "shopimg.webp",
        "specialty": [
            "اسبيرات"
        ],
        "phone": "nan",
        "whatsapp": "nan",
        "isFeatured": false,
        "googleMapsUrl": "https://maps.google.com/?cid=7518747639248112766"
    },
    {
        "id": 92,
        "name": "الاشقاء لقطع غيار الشاحنات",
        "location": {
            "state": "البحر الأحمر",
            "city": "بورتسودان",
            "address": ""
        },
        "image": "shopimg.webp",
        "specialty": [
            "اسبيرات",
            "شاحنات"
        ],
        "phone": "nan",
        "whatsapp": "nan",
        "isFeatured": false,
        "googleMapsUrl": "https://maps.google.com/?cid=6778935646519459016"
    },
    {
        "id": 93,
        "name": "المستودع الصيني لقطع الغيار",
        "location": {
            "state": "البحر الأحمر",
            "city": "بورتسودان",
            "address": ""
        },
        "image": "shopimg.webp",
        "specialty": [
            "اسبيرات"
        ],
        "phone": "nan",
        "whatsapp": "nan",
        "isFeatured": false,
        "googleMapsUrl": "https://maps.google.com/?cid=10756854856411255632"
    },
    {
        "id": 94,
        "name": "اليحيا لقطع الغيار اليابانيه",
        "location": {
            "state": "البحر الأحمر",
            "city": "بورتسودان",
            "address": ""
        },
        "image": "shopimg.webp",
        "specialty": [
            "اسبيرات",
            "ياباني"
        ],
        "phone": "+249913854933",
        "whatsapp": "+249913854933",
        "isFeatured": false,
        "googleMapsUrl": "https://maps.google.com/?cid=15944510538047934410"
    },
    {
        "id": 95,
        "name": "حيدر لقطع الغيار",
        "location": {
            "state": "البحر الأحمر",
            "city": "بورتسودان",
            "address": ""
        },
        "image": "shopimg.webp",
        "specialty": [
            "اسبيرات"
        ],
        "phone": "nan",
        "whatsapp": "nan",
        "isFeatured": false,
        "googleMapsUrl": "https://maps.google.com/?cid=9654327084931104072"
    },
    {
        "id": 96,
        "name": "المحسي لقطع غيار السيارات",
        "location": {
            "state": "البحر الأحمر",
            "city": "بورتسودان",
            "address": ""
        },
        "image": "shopimg.webp",
        "specialty": [
            "اسبيرات"
        ],
        "phone": "+249900370107",
        "whatsapp": "+249900370107",
        "isFeatured": false,
        "googleMapsUrl": "https://maps.google.com/?cid=5787805460115324432"
    },
    {
        "id": 97,
        "name": "الشنقيطى موتورز لقطع غيار الشاحنات",
        "location": {
            "state": "البحر الأحمر",
            "city": "بورتسودان",
            "address": ""
        },
        "image": "shopimg.webp",
        "specialty": [
            "اسبيرات",
            "شاحنات"
        ],
        "phone": "nan",
        "whatsapp": "nan",
        "isFeatured": false,
        "googleMapsUrl": "https://maps.google.com/?cid=11199151979592472234"
    },
    {
        "id": 98,
        "name": "عزام قريس لقطع الغيار",
        "location": {
            "state": "البحر الأحمر",
            "city": "بورتسودان",
            "address": ""
        },
        "image": "shopimg.webp",
        "specialty": [
            "اسبيرات"
        ],
        "phone": "nan",
        "whatsapp": "nan",
        "isFeatured": false,
        "googleMapsUrl": "https://maps.google.com/?cid=3145494596335470067"
    },
    {
        "id": 99,
        "name": "المبشر لقطع الغيار و الصيانة الحديثة",
        "location": {
            "state": "البحر الأحمر",
            "city": "بورتسودان",
            "address": ""
        },
        "image": "shopimg.webp",
        "specialty": [
            "اسبيرات"
        ],
        "phone": "+249123510583",
        "whatsapp": "+249123510583",
        "isFeatured": false,
        "googleMapsUrl": "https://maps.google.com/?cid=17159080556334821219"
    },
    {
        "id": 100,
        "name": "محلات المصطفي للاسبيرات الكورية والزيوت",
        "location": {
            "state": "البحر الأحمر",
            "city": "بورتسودان",
            "address": ""
        },
        "image": "shopimg.webp",
        "specialty": [
            "اسبيرات","زيوت","كوري"
        ],
        "phone": "+249902810672",
        "whatsapp": "+249902810672",
        "isFeatured": false,
        "googleMapsUrl": "https://maps.google.com/?cid=9554969467757071902"
    },
    {
        "id": 101,
        "name": "الوكالة لقطع الغيار",
        "location": {
            "state": "البحر الأحمر",
            "city": "بورتسودان",
            "address": "سلالاب"
        },
        "image": "shopimg.webp",
        "specialty": [
            "اسبيرات"
        ],
        "phone": "+249912774442",
        "whatsapp": "+249912774442",
        "isFeatured": false,
        "googleMapsUrl": "https://maps.google.com/?cid=14675695208948924529"
    },
    {
        "id": 102,
        "name": "ود البكري لقطع غيار الشاحنات",
        "location": {
            "state": "البحر الأحمر",
            "city": "بورتسودان",
            "address": ""
        },
        "image": "shopimg.webp",
        "specialty": [
            "اسبيرات",
            "شاحنات"
        ],
        "phone": "+249910311477",
        "whatsapp": "+249910311477",
        "isFeatured": false,
        "googleMapsUrl": "https://maps.google.com/?cid=6201031010661391382"
    },
    {
        "id": 103,
        "name": "التميز للإسبيرات اليابانيه",
        "location": {
            "state": "البحر الأحمر",
            "city": "بورتسودان",
            "address": ""
        },
        "image": "shopimg.webp",
        "specialty": [
            "اسبيرات",
            "ياباني"
        ],
        "phone": "nan",
        "whatsapp": "nan",
        "isFeatured": false,
        "googleMapsUrl": "https://maps.google.com/?cid=1649432745307430971"
    },
    {
        "id": 104,
        "name": "الواجهه للزيوت والإسبيرات",
        "location": {
            "state": "البحر الأحمر",
            "city": "بورتسودان",
            "address": ""
        },
        "image": "shopimg.webp",
        "specialty": [
            "اسبيرات",
            "زيوت"
        ],
        "phone": "+249123163450",
        "whatsapp": "+24912316345",
        "isFeatured": false,
        "googleMapsUrl": "https://maps.google.com/?cid=13333144247814263163"
    },
    {
        "id": 105,
        "name": "نت اسبيرات ميكانايزد",
        "location": {
            "state": "البحر الأحمر",
            "city": "بورتسودان",
            "address": ""
        },
        "image": "shopimg.webp",
        "specialty": [
            "اسبيرات"
        ],
        "phone": "+24991+2495721",
        "whatsapp": "+24991+2495721",
        "isFeatured": false,
        "googleMapsUrl": "https://maps.google.com/?cid=16602360309593122709"
    },
    {
        "id": 106,
        "name": "اعمال سليم الذوق للاسبيرات الكورية",
        "location": {
            "state": "البحر الأحمر",
            "city": "بورتسودان",
            "address": ""
        },
        "image": "shopimg.webp",
        "specialty": [
            "اسبيرات","كوري"
        ],
        "phone": "+249914174704",
        "whatsapp": "+249914174704",
        "isFeatured": false,
        "googleMapsUrl": "https://maps.google.com/?cid=8684417096786936385"
    },
    {
        "id": 108,
        "name": "منير للاسبيرات اليابانيه",
        "location": {
            "state": "كسلا",
            "city": "كسلا",
            "address": ""
        },
        "image": "shopimg.webp",
        "specialty": [
            "اسبيرات",
            "ياباني"
        ],
        "phone": "+249912603176",
        "whatsapp": "+249912603176",
        "isFeatured": false,
        "googleMapsUrl": "https://maps.google.com/?cid=232626591587991124"
    },
    {
        "id": 109,
        "name": "مجمع كسلا المتكامل للأسيبرات الكورية",
        "location": {
            "state": "كسلا",
            "city": "كسلا",
            "address": ""
        },
        "image": "shopimg.webp",
        "specialty": [
            "اسبيرات",
            "كوري"
        ],
        "phone": "+249913012018",
        "whatsapp": "+249913012018",
        "isFeatured": false,
        "googleMapsUrl": "https://maps.google.com/?cid=18161217913014075511"
    },
    {
        "id": 110,
        "name": "بشير علي للإسبيرات اليابانية",
        "location": {
            "state": "كسلا",
            "city": "كسلا",
            "address": ""
        },
        "image": "shopimg.webp",
        "specialty": [
            "اسبيرات",
            "كوري"
        ],
        "phone": "nan",
        "whatsapp": "nan",
        "isFeatured": false,
        "googleMapsUrl": "https://maps.google.com/?cid=14267529350189328361"
    },
    {
        "id": 111,
        "name": "محمد حسن ابراهيم للاسبيرات",
        "location": {
            "state": "كسلا",
            "city": "كسلا",
            "address": ""
        },
        "image": "shopimg.webp",
        "specialty": [
            "اسبيرات"
        ],
        "phone": "nan",
        "whatsapp": "nan",
        "isFeatured": false,
        "googleMapsUrl": "https://maps.google.com/?cid=3799712221890850497"
    },
    {
        "id": 112,
        "name": "اوتوكار لزينة السيارات",
        "location": {
            "state": "كسلا",
            "city": "كسلا",
            "address": ""
        },
        "image": "shopimg.webp",
        "specialty": [
            "زينة"
        ],
        "phone": "nan",
        "whatsapp": "nan",
        "isFeatured": false,
        "googleMapsUrl": "https://maps.google.com/?cid=16668786345348328774"
    },
    {
        "id": 113,
        "name": "امين الهدي لقطع غيار السيارات",
        "location": {
            "state": "كسلا",
            "city": "كسلا",
            "address": ""
        },
        "image": "shopimg.webp",
        "specialty": [
            "اسبيرات"
        ],
        "phone": "+249969635274",
        "whatsapp": "+249969635274",
        "isFeatured": false,
        "googleMapsUrl": "https://maps.google.com/?cid=7270789824131902174"
    },
    {
        "id": 114,
        "name": "أعمال التميز لاسبيرات المواتر",
        "location": {
            "state": "كسلا",
            "city": "كسلا",
            "address": ""
        },
        "image": "shopimg.webp",
        "specialty": [
            "اسبيرات"
        ],
        "phone": "+249915031178",
        "whatsapp": "+249915031178",
        "isFeatured": false,
        "googleMapsUrl": "https://maps.google.com/?cid=13469273827684702611"
    },
    {
        "id": 115,
        "name": "جورج لاسبيرات السيارات",
        "location": {
            "state": "كسلا",
            "city": "كسلا",
            "address": ""
        },
        "image": "shopimg.webp",
        "specialty": [
            "اسبيرات"
        ],
        "phone": "nan",
        "whatsapp": "nan",
        "isFeatured": false,
        "googleMapsUrl": "https://maps.google.com/?cid=5672901055013215316"
    },
    {
        "id": 116,
        "name": "غسان للاسبيرات",
        "location": {
            "state": "كسلا",
            "city": "كسلا",
            "address": ""
        },
        "image": "shopimg.webp",
        "specialty": [
            "اسبيرات"
        ],
        "phone": "nan",
        "whatsapp": "nan",
        "isFeatured": false,
        "googleMapsUrl": "https://maps.google.com/?cid=3290291999893879063"
    },
    {
        "id": 117,
        "name": "حمد النيل ديزل لقطع الغيار",
        "location": {
            "state": "كسلا",
            "city": "كسلا",
            "address": ""
        },
        "image": "shopimg.webp",
        "specialty": [
            "اسبيرات"
        ],
        "phone": "nan",
        "whatsapp": "nan",
        "isFeatured": false,
        "googleMapsUrl": "https://maps.google.com/?cid=9470404478712243522"
    },
    {
        "id": 118,
        "name": "اسبيرات الريس ودالنعمة",
        "location": {
            "state": "كسلا",
            "city": "كسلا",
            "address": ""
        },
        "image": "shopimg.webp",
        "specialty": [
            "اسبيرات"
        ],
        "phone": "nan",
        "whatsapp": "nan",
        "isFeatured": false,
        "googleMapsUrl": "https://maps.google.com/?cid=3946848376258306920"
    },
    {
        "id": 119,
        "name": "ود صلاح روقه للاسبيرات الكورية",
        "location": {
            "state": "كسلا",
            "city": "كسلا",
            "address": ""
        },
        "image": "shopimg.webp",
        "specialty": [
            "اسبيرات","كوري"
        ],
        "phone": "nan",
        "whatsapp": "nan",
        "isFeatured": false,
        "googleMapsUrl": "https://maps.google.com/?cid=7186817540600474466"
    },
    {
        "id": 120,
        "name": "الاخوه لقطع الغيار",
        "location": {
            "state": "كسلا",
            "city": "كسلا",
            "address": ""
        },
        "image": "shopimg.webp",
        "specialty": [
            "اسبيرات"
        ],
        "phone": "nan",
        "whatsapp": "nan",
        "isFeatured": false,
        "googleMapsUrl": "https://maps.google.com/?cid=14298106819957043994"
    },
    {
        "id": 121,
        "name": "البيان لإسبيرات المواتر",
        "location": {
            "state": "كسلا",
            "city": "كسلا",
            "address": ""
        },
        "image": "shopimg.webp",
        "specialty": [
            "اسبيرات",
            "مواتر"
        ],
        "phone": "nan",
        "whatsapp": "nan",
        "isFeatured": false,
        "googleMapsUrl": "https://maps.google.com/?cid=6351917611897211280"
    },
    {
        "id": 122,
        "name": "ايمن للإسبيرات اليابانيه و ادوات السمكرة",
        "location": {
            "state": "كسلا",
            "city": "كسلا",
            "address": "السوق الشعبي"
        },
        "image": "shopimg.webp",
        "specialty": [
            "اسبيرات",
            "ياباني",
            "ادوات سمكرة"
        ],
        "phone": "nan",
        "whatsapp": "nan",
        "isFeatured": false,
        "googleMapsUrl": "https://maps.google.com/?cid=18354501700955751176"
    },
    {
        "id": 123,
        "name": "الخبراء للإسبيرات الكورية والزيوت",
        "location": {
            "state": "كسلا",
            "city": "كسلا",
            "address": ""
        },
        "image": "shopimg.webp",
        "specialty": [
            "اسبيرات",
            "كوري","زيوت"
        ],
        "phone": "+249911801790",
        "whatsapp": "+24991180179",
        "isFeatured": false,
        "googleMapsUrl": "https://maps.google.com/?cid=16629555494658484200"
    },
    {
        "id": 124,
        "name": "ودسعد للاسبيرات",
        "location": {
            "state": "كسلا",
            "city": "كسلا",
            "address": ""
        },
        "image": "shopimg.webp",
        "specialty": [
            "اسبيرات"
        ],
        "phone": "nan",
        "whatsapp": "nan",
        "isFeatured": false,
        "googleMapsUrl": "https://maps.google.com/?cid=3309740623847617089"
    },
    {
        "id": 125,
        "name": "صلاح الأمين بوي لقطع الغيار",
        "location": {
            "state": "كسلا",
            "city": "كسلا",
            "address": ""
        },
        "image": "shopimg.webp",
        "specialty": [
            "اسبيرات"
        ],
        "phone": "nan",
        "whatsapp": "nan",
        "isFeatured": false,
        "googleMapsUrl": "https://maps.google.com/?cid=15491321131807553364"
    },
    {
        "id": 126,
        "name": "عبدالمنعم الرفاعي للاسبيرات",
        "location": {
            "state": "كسلا",
            "city": "كسلا",
            "address": "السوق الشعبي"
        },
        "image": "shopimg.webp",
        "specialty": [
            "اسبيرات"
        ],
        "phone": "+249119226222",
        "whatsapp": "+249119226222",
        "isFeatured": false,
        "googleMapsUrl": "https://maps.google.com/?cid=5175558864676757483"
    },
    {
        "id": 127,
        "name": "المجتبي حمدناالله لجميع اسبيرات الركشات",
        "location": {
            "state": "القضارف",
            "city": "القضارف",
            "address": ""
        },
        "image": "shopimg.webp",
        "specialty": [
            "اسبيرات"
        ],
        "phone": "nan",
        "whatsapp": "nan",
        "isFeatured": false,
        "googleMapsUrl": "https://maps.google.com/?cid=795686194049894075"
    },
    {
        "id": 128,
        "name": "متوكل عِبود لاسبيرات التركترات واللواري",
        "location": {
            "state": "القضارف",
            "city": "القضارف",
            "address": ""
        },
        "image": "shopimg.webp",
        "specialty": [
            "اسبيرات"
        ],
        "phone": "+249910104199",
        "whatsapp": "+249910104199",
        "isFeatured": false,
        "googleMapsUrl": "https://maps.google.com/?cid=18229658188345525762"
    },
    {
        "id": 129,
        "name": "مجمع الوزيرة للاسبيرات",
        "location": {
            "state": "القضارف",
            "city": "القضارف",
            "address": "جوار نادي القضارف"
        },
        "image": "shopimg.webp",
        "specialty": [
            "اسبيرات"
        ],
        "phone": "+249121575726",
        "whatsapp": "+249121575726",
        "isFeatured": false,
        "googleMapsUrl": "https://maps.google.com/?cid=6884150855509867383"
    },
    {
        "id": 130,
        "name": "شركة وادي الجندي لقطع غيار السيارات",
        "location": {
            "state": "القضارف",
            "city": "القضارف",
            "address": ""
        },
        "image": "shopimg.webp",
        "specialty": [
            "اسبيرات"
        ],
        "phone": "+249123824025",
        "whatsapp": "+249123824025",
        "isFeatured": false,
        "googleMapsUrl": "https://maps.google.com/?cid=12471447896402101067"
    },
    {
        "id": 131,
        "name": "الادريسي لقطع غيار التركترات والبدفورد",
        "location": {
            "state": "القضارف",
            "city": "القضارف",
            "address": ""
        },
        "image": "shopimg.webp",
        "specialty": [
            "اسبيرات",
            "تركترات",
            "بدفورد"
        ],
        "phone": "nan",
        "whatsapp": "nan",
        "isFeatured": false,
        "googleMapsUrl": "https://maps.google.com/?cid=8580394407141888243"
    },
    {
        "id": 132,
        "name": "هشام الصادق للأسبيرات",
        "location": {
            "state": "القضارف",
            "city": "القضارف",
            "address": ""
        },
        "image": "shopimg.webp",
        "specialty": [
            "اسبيرات"
        ],
        "phone": "nan",
        "whatsapp": "nan",
        "isFeatured": false,
        "googleMapsUrl": "https://maps.google.com/?cid=12280390639971601537"
    },
    {
        "id": 133,
        "name": "اسبيرات ود كرتال",
        "location": {
            "state": "القضارف",
            "city": "القضارف",
            "address": ""
        },
        "image": "shopimg.webp",
        "specialty": [
            "اسبيرات"
        ],
        "phone": "+249113380946",
        "whatsapp": "+249113380946",
        "isFeatured": false,
        "googleMapsUrl": "https://maps.google.com/?cid=6749543037075651751"
    },
    {
        "id": 134,
        "name": "اولاد الطاش لزينة وإسبيرات السيارات",
        "location": {
            "state": "القضارف",
            "city": "القضارف",
            "address": "شارع الزينة"
        },
        "image": "shopimg.webp",
        "specialty": [
            "اسبيرات",
            "زينة"
        ],
        "phone": "+249912486380",
        "whatsapp": "+24991248638",
        "isFeatured": false,
        "googleMapsUrl": "https://maps.google.com/?cid=3883350614193306162"
    },
    {
        "id": 135,
        "name": "بكري شبارقه لاسبيرات الدفار",
        "location": {
            "state": "القضارف",
            "city": "القضارف",
            "address": ""
        },
        "image": "shopimg.webp",
        "specialty": [
            "اسبيرات"
        ],
        "phone": "nan",
        "whatsapp": "nan",
        "isFeatured": false,
        "googleMapsUrl": "https://maps.google.com/?cid=3610260143455069510"
    },
    {
        "id": 136,
        "name": "اولاد مالك للاسبيرات",
        "location": {
            "state": "القضارف",
            "city": "القضارف",
            "address": ""
        },
        "image": "shopimg.webp",
        "specialty": [
            "اسبيرات"
        ],
        "phone": "+249919002451",
        "whatsapp": "+249919002451",
        "isFeatured": false,
        "googleMapsUrl": "https://maps.google.com/?cid=11424479964340390687"
    },
    {
        "id": 137,
        "name": "معتذ النعيم لقطع الغيار",
        "location": {
            "state": "القضارف",
            "city": "القضارف",
            "address": ""
        },
        "image": "shopimg.webp",
        "specialty": [
            "اسبيرات"
        ],
        "phone": "+249117770700",
        "whatsapp": "+24911777070",
        "isFeatured": false,
        "googleMapsUrl": "https://maps.google.com/?cid=11740202062529531448"
    },
    {
        "id": 138,
        "name": "اسبيرات كاريكا",
        "location": {
            "state": "القضارف",
            "city": "القضارف",
            "address": ""
        },
        "image": "shopimg.webp",
        "specialty": [
            "اسبيرات"
        ],
        "phone": "nan",
        "whatsapp": "nan",
        "isFeatured": false,
        "googleMapsUrl": "https://maps.google.com/?cid=6513263537040880999"
    },
    {
        "id": 139,
        "name": "ابراهيم عبدالله للاسبيرات",
        "location": {
            "state": "القضارف",
            "city": "القضارف",
            "address": ""
        },
        "image": "shopimg.webp",
        "specialty": [
            "اسبيرات"
        ],
        "phone": "nan",
        "whatsapp": "nan",
        "isFeatured": false,
        "googleMapsUrl": "https://maps.google.com/?cid=16533857840304067710"
    },
    {
        "id": 140,
        "name": "حذيفة للاسبيرات ومعدات الورش",
        "location": {
            "state": "القضارف",
            "city": "القضارف",
            "address": ""
        },
        "image": "shopimg.webp",
        "specialty": [
            "اسبيرات"
        ],
        "phone": "+249917259567",
        "whatsapp": "+249917259567",
        "isFeatured": false,
        "googleMapsUrl": "https://maps.google.com/?cid=11948006042598529141"
    },
    {
        "id": 141,
        "name": "ربيع محمد عبدالماجد لقطع غيار السيارات",
        "location": {
            "state": "القضارف",
            "city": "القضارف",
            "address": ""
        },
        "image": "shopimg.webp",
        "specialty": [
            "اسبيرات"
        ],
        "phone": "+249123143163",
        "whatsapp": "+249123143163",
        "isFeatured": false,
        "googleMapsUrl": "https://maps.google.com/?cid=4930804992702012504"
    },
    {
        "id": 142,
        "name": "علي عبدالجليل العفصي لاسبيرات الدفار والجامبو والايسوزو",
        "location": {
            "state": "القضارف",
            "city": "القضارف",
            "address": ""
        },
        "image": "shopimg.webp",
        "specialty": [
            "اسبيرات"
        ],
        "phone": "nan",
        "whatsapp": "nan",
        "isFeatured": false,
        "googleMapsUrl": "https://maps.google.com/?cid=3111834146155963921"
    },
    {
        "id": 143,
        "name": "شركة عبد الله عمر المختار",
        "location": {
            "state": "القضارف",
            "city": "القضارف",
            "address": ""
        },
        "image": "shopimg.webp",
        "specialty": [
            "اسبيرات"
        ],
        "phone": "nan",
        "whatsapp": "nan",
        "isFeatured": false,
        "googleMapsUrl": "https://maps.google.com/?cid=3101325280646294544"
    },
    {
        "id": 144,
        "name": "ابو ايمن لقطع غيار السيارات",
        "location": {
            "state": "القضارف",
            "city": "القضارف",
            "address": ""
        },
        "image": "shopimg.webp",
        "specialty": [
            "اسبيرات"
        ],
        "phone": "+249911817781",
        "whatsapp": "+249911817781",
        "isFeatured": false,
        "googleMapsUrl": "https://maps.google.com/?cid=3488167781708489574"
    },
    {
        "id": 145,
        "name": "الفاضل المبارك لقطع الغيار",
        "location": {
            "state": "سنار",
            "city": "سنار",
            "address": ""
        },
        "image": "shopimg.webp",
        "specialty": [
            "اسبيرات"
        ],
        "phone": "nan",
        "whatsapp": "nan",
        "isFeatured": false,
        "googleMapsUrl": "https://maps.google.com/?cid=14217226703779556030"
    },
    {
        "id": 146,
        "name": "اسبيرات النيل",
        "location": {
            "state": "نهر النيل",
            "city": "الدامر",
            "address": ""
        },
        "image": "shopimg.webp",
        "specialty": [
            "اسبيرات"
        ],
        "phone": "+2491+24908272",
        "whatsapp": "+2491+24908272",
        "isFeatured": false,
        "googleMapsUrl": "https://maps.google.com/?cid=7689259088412268304"
    },
    {
        "id": 147,
        "name": "مجموعة سبنتود لقطع الغيار",
        "location": {
            "state": "الخرطوم",
            "city": "أم درمان",
            "address": "شارع اردا"
        },
        "image": "shopimg.webp",
        "specialty": [
            "اسبيرات"
        ],
        "phone": "+249915666662",
        "whatsapp": "+249915666662",
        "isFeatured": false,
        "googleMapsUrl": "https://maps.google.com/?cid=4313916918049968638"
    },
    {
        "id": 148,
        "name": "صلاح السناري لقطع الغيار",
        "location": {
            "state": "سنار",
            "city": "سنار",
            "address": ""
        },
        "image": "shopimg.webp",
        "specialty": [
            "اسبيرات"
        ],
        "phone": "nan",
        "whatsapp": "nan",
        "isFeatured": false,
        "googleMapsUrl": "https://maps.google.com/?cid=5060127594236656057"
    },
    {
        "id": 149,
        "name": "عمر سندة للاسبيرات",
        "location": {
            "state": "سنار",
            "city": "سنار",
            "address": ""
        },
        "image": "shopimg.webp",
        "specialty": [
            "اسبيرات"
        ],
        "phone": "+249909347479",
        "whatsapp": "+249909347479",
        "isFeatured": false,
        "googleMapsUrl": "https://maps.google.com/?cid=321092085275081264"
    },
    {
        "id": 150,
        "name": "فكري العبيد لقطع الغيار",
        "location": {
            "state": "سنار",
            "city": "سنار",
            "address": ""
        },
        "image": "shopimg.webp",
        "specialty": [
            "اسبيرات"
        ],
        "phone": "nan",
        "whatsapp": "nan",
        "isFeatured": false,
        "googleMapsUrl": "https://maps.google.com/?cid=5965184079852224295"
    },
    {
        "id": 151,
        "name": "ودالبخاري لقطع غيار الجرارات والتركترات",
        "location": {
            "state": "سنار",
            "city": "سنار",
            "address": ""
        },
        "image": "shopimg.webp",
        "specialty": [
            "اسبيرات",
            "جرارات",
            "تركترات"
        ],
        "phone": "nan",
        "whatsapp": "nan",
        "isFeatured": false,
        "googleMapsUrl": "https://maps.google.com/?cid=4167372229995774868"
    },
    {
        "id": 152,
        "name": "وطني لقطع غيار وصيانة المواتر",
        "location": {
            "state": "سنار",
            "city": "سنار",
            "address": ""
        },
        "image": "shopimg.webp",
        "specialty": [
            "اسبيرات"
        ],
        "phone": "nan",
        "whatsapp": "nan",
        "isFeatured": false,
        "googleMapsUrl": "https://maps.google.com/?cid=14205896871346326449"
    },
    {
        "id": 153,
        "name": "يحيى الريح لقطع الغيار",
        "location": {
            "state": "سنار",
            "city": "سنار",
            "address": ""
        },
        "image": "shopimg.webp",
        "specialty": [
            "اسبيرات"
        ],
        "phone": "nan",
        "whatsapp": "nan",
        "isFeatured": false,
        "googleMapsUrl": "https://maps.google.com/?cid=16629027792520628272"
    },
    {
        "id": 154,
        "name": "ابو صلاح للاسبيرات",
        "location": {
            "state": "سنار",
            "city": "سنار",
            "address": ""
        },
        "image": "shopimg.webp",
        "specialty": [
            "اسبيرات"
        ],
        "phone": "nan",
        "whatsapp": "nan",
        "isFeatured": false,
        "googleMapsUrl": "https://maps.google.com/?cid=7380757180431958998"
    },
    {
        "id": 155,
        "name": "عابدين للاسبيرات",
        "location": {
            "state": "سنار",
            "city": "سنار",
            "address": "المنطقه الصناعيه"
        },
        "image": "shopimg.webp",
        "specialty": [
            "اسبيرات"
        ],
        "phone": "nan",
        "whatsapp": "nan",
        "isFeatured": false,
        "googleMapsUrl": "https://maps.google.com/?cid=12747096295419764299"
    },
    {
        "id": 156,
        "name": "شركة محجوب أولاد",
        "location": {
            "state": "سنار",
            "city": "سنار",
            "address": ""
        },
        "image": "shopimg.webp",
        "specialty": [
            "اسبيرات"
        ],
        "phone": "nan",
        "whatsapp": "nan",
        "isFeatured": false,
        "googleMapsUrl": "https://maps.google.com/?cid=16034352481078338542"
    },
    {
        "id": 157,
        "name": "مستر لقطع الغيار",
        "location": {
            "state": "سنار",
            "city": "سنار",
            "address": ""
        },
        "image": "shopimg.webp",
        "specialty": [
            "اسبيرات"
        ],
        "phone": "nan",
        "whatsapp": "nan",
        "isFeatured": false,
        "googleMapsUrl": "https://maps.google.com/?cid=603747054884055768"
    },
    {
        "id": 158,
        "name": "أولاد بشير الأنصاري لاسبيرات التراكتورات",
        "location": {
            "state": "النيل الأبيض",
            "city": "الدويم",
            "address": ""
        },
        "image": "shopimg.webp",
        "specialty": [
            "اسبيرات"
        ],
        "phone": "+249910527211",
        "whatsapp": "+249910527211",
        "isFeatured": false,
        "googleMapsUrl": "https://maps.google.com/?cid=16197210237987397545"
    },
    {
        "id": 159,
        "name": "الاصالة للاسبيرات اليابانية والكورية",
        "location": {
            "state": "الخرطوم",
            "city": "الخرطوم بحري",
            "address": ""
        },
        "image": "shopimg.webp",
        "specialty": [
            "اسبيرات","كوري"
        ],
        "phone": "+249123806557",
        "whatsapp": "+249123806557",
        "isFeatured": false,
        "googleMapsUrl": "https://maps.google.com/?cid=4353698821423207873"
    },
    {
        "id": 160,
        "name": "المجري لقطع اسبيرات الركشات",
        "location": {
            "state": "الخرطوم",
            "city": "الخرطوم",
            "address": ""
        },
        "image": "shopimg.webp",
        "specialty": [
            "اسبيرات"
        ],
        "phone": "+249911181711",
        "whatsapp": "+249911181711",
        "isFeatured": false,
        "googleMapsUrl": "https://maps.google.com/?cid=1102210615801878140"
    },
    {
        "id": 161,
        "name": "مركز النيسان لقطع الغيار",
        "location": {
            "state": "الجزيرة",
            "city": "مدني",
            "address": "شارع المنطقة الصناعية"
        },
        "image": "shopimg.webp",
        "specialty": [
            "اسبيرات",
            "ياباني",
            "نيسان"
        ],
        "phone": "+249918172587",
        "whatsapp": "+249918172587",
        "isFeatured": false,
        "googleMapsUrl": "https://maps.google.com/?cid=2383939028845097676"
    },
    {
        "id": 162,
        "name": "اسبيرات عمر التوم",
        "location": {
            "state": "الجزيرة",
            "city": "مدني",
            "address": "شارع ود كنان"
        },
        "image": "shopimg.webp",
        "specialty": [
            "اسبيرات"
        ],
        "phone": "nan",
        "whatsapp": "nan",
        "isFeatured": false,
        "googleMapsUrl": "https://maps.google.com/?cid=10685460284813044250"
    },
    {
        "id": 163,
        "name": "الصفا للاسبيرات اليابانية ",
        "location": {
            "state": "الجزيرة",
            "city": "مدني",
            "address": ""
        },
        "image": "shopimg.webp",
        "specialty": [
            "اسبيرات"
        ],
        "phone": "nan",
        "whatsapp": "nan",
        "isFeatured": false,
        "googleMapsUrl": "https://maps.google.com/?cid=16977858423810356025"
    },
    {
        "id": 164,
        "name": "نامهان للإسبيرات الكورية",
        "location": {
            "state": "الجزيرة",
            "city": "مدني",
            "address": ""
        },
        "image": "shopimg.webp",
        "specialty": [
            "اسبيرات","كوري"
        ],
        "phone": "nan",
        "whatsapp": "nan",
        "isFeatured": false,
        "googleMapsUrl": "https://maps.google.com/?cid=9105133421845282775"
    },
    {
        "id": 165,
        "name": "ملك الكوري للإسبيرات",
        "location": {
            "state": "الجزيرة",
            "city": "مدني",
            "address": "شارع الحرية"
        },
        "image": "shopimg.webp",
        "specialty": [
            "اسبيرات","كوري"
        ],
        "phone": "+249118478159",
        "whatsapp": "+249118478159",
        "isFeatured": false,
        "googleMapsUrl": "https://maps.google.com/?cid=3330592149028875346"
    },
    {
        "id": 166,
        "name": "يوسف القرشي للاسبيرات الكورية",
        "location": {
            "state": "الجزيرة",
            "city": "مدني",
            "address": "شارع ودكنان"
        },
        "image": "shopimg.webp",
        "specialty": [
            "اسبيرات","كوري"
        ],
        "phone": "+249915679179",
        "whatsapp": "+249915679179",
        "isFeatured": false,
        "googleMapsUrl": "https://maps.google.com/?cid=17798769648176453534"
    },
    {
        "id": 167,
        "name": "المقداد للاسبيرات الكورية",
        "location": {
            "state": "الجزيرة",
            "city": "مدني",
            "address": ""
        },
        "image": "shopimg.webp",
        "specialty": [
            "اسبيرات","كوري"
        ],
        "phone": "+249123709585",
        "whatsapp": "+249123709585",
        "isFeatured": false,
        "googleMapsUrl": "https://maps.google.com/?cid=9791861710480768337"
    },
    {
        "id": 168,
        "name": "أعمال أبو التومات التجارية",
        "location": {
            "state": "الجزيرة",
            "city": "مدني",
            "address": ""
        },
        "image": "shopimg.webp",
        "specialty": [
            "اسبيرات"
        ],
        "phone": "nan",
        "whatsapp": "nan",
        "isFeatured": false,
        "googleMapsUrl": "https://maps.google.com/?cid=9381864032094048200"
    },
    {
        "id": 169,
        "name": "الإخوة للمفاتيح (نسخ برمجة )",
        "location": {
            "state": "الجزيرة",
            "city": "مدني",
            "address": ""
        },
        "image": "shopimg.webp",
        "specialty": [
            "مفاتيح"
        ],
        "phone": "nan",
        "whatsapp": "nan",
        "isFeatured": false,
        "googleMapsUrl": "https://maps.google.com/?cid=2893347941069004610"
    },
    {
        "id": 170,
        "name": "محمد الطاهر الطيب لقطع غيار النيسان",
        "location": {
            "state": "الجزيرة",
            "city": "مدني",
            "address": ""
        },
        "image": "shopimg.webp",
        "specialty": [
            "اسبيرات",
            "ياباني",
            "نيسان"
        ],
        "phone": "+249911162959",
        "whatsapp": "+249911162959",
        "isFeatured": false,
        "googleMapsUrl": "https://maps.google.com/?cid=5801583374624049557"
    },
    {
        "id": 171,
        "name": "اعمال تمجيد التجارية",
        "location": {
            "state": "الجزيرة",
            "city": "مدني",
            "address": "شارع الحرية"
        },
        "image": "shopimg.webp",
        "specialty": [
            "اسبيرات"
        ],
        "phone": "+249129052552",
        "whatsapp": "+249129052552",
        "isFeatured": false,
        "googleMapsUrl": "https://maps.google.com/?cid=9894904393380975118"
    },
    {
        "id": 172,
        "name": "محمد موسى لقطع الغيار الكورية",
        "location": {
            "state": "الجزيرة",
            "city": "مدني",
            "address": "شارع ود كنان"
        },
        "image": "shopimg.webp",
        "specialty": [
            "اسبيرات","كوري"
        ],
        "phone": "+249912767314",
        "whatsapp": "+249912767314",
        "isFeatured": false,
        "googleMapsUrl": "https://maps.google.com/?cid=12670325737176229505"
    },
    {
        "id": 173,
        "name": "ودبحر للاسبيرات الكورية",
        "location": {
            "state": "الجزيرة",
            "city": "مدني",
            "address": "شارع الحرية"
        },
        "image": "shopimg.webp",
        "specialty": [
            "اسبيرات","كوري"
        ],
        "phone": "+249912649212",
        "whatsapp": "+249912649212",
        "isFeatured": false,
        "googleMapsUrl": "https://maps.google.com/?cid=2085584685409463691"
    },
    {
        "id": 174,
        "name": "مجموعة المتخصص للايسوزو والديناصور",
        "location": {
            "state": "الجزيرة",
            "city": "مدني",
            "address": ""
        },
        "image": "shopimg.webp",
        "specialty": [
            "اسبيرات",
            "ايسوزو"
        ],
        "phone": "nan",
        "whatsapp": "nan",
        "isFeatured": false,
        "googleMapsUrl": "https://maps.google.com/?cid=11454378049146922815"
    },
    {
        "id": 175,
        "name": "مجاهد لقطع غيار السيارات",
        "location": {
            "state": "الجزيرة",
            "city": "مدني",
            "address": "شارع ود كنان"
        },
        "image": "shopimg.webp",
        "specialty": [
            "اسبيرات"
        ],
        "phone": "+249919120780",
        "whatsapp": "+24991912078",
        "isFeatured": false,
        "googleMapsUrl": "https://maps.google.com/?cid=16710542922138362944"
    },
    {
        "id": 176,
        "name": "احمد فضل الله بله لقطع الغيار",
        "location": {
            "state": "الجزيرة",
            "city": "مدني",
            "address": "السوق المركزي"
        },
        "image": "shopimg.webp",
        "specialty": [
            "اسبيرات"
        ],
        "phone": "+249916817672",
        "whatsapp": "+249916817672",
        "isFeatured": false,
        "googleMapsUrl": "https://maps.google.com/?cid=14359824314324190967"
    },
    {
        "id": 177,
        "name": "الامين للاسبيرات وتلميع الفوانيس",
        "location": {
            "state": "الجزيرة",
            "city": "الحصاحيصا",
            "address": ""
        },
        "image": "shopimg.webp",
        "specialty": [
            "اسبيرات"
        ],
        "phone": "+249903002023",
        "whatsapp": "+249903002023",
        "isFeatured": false,
        "googleMapsUrl": "https://maps.google.com/?cid=3450379176767261473"
    },
    {
        "id": 178,
        "name": "اسبيرات اسامه",
        "location": {
            "state": "الجزيرة",
            "city": "الحصاحيصا",
            "address": ""
        },
        "image": "shopimg.webp",
        "specialty": [
            "اسبيرات"
        ],
        "phone": "nan",
        "whatsapp": "nan",
        "isFeatured": false,
        "googleMapsUrl": "https://maps.google.com/?cid=14044809549108858853"
    },
    {
        "id": 179,
        "name": "كمال الشبيك لإسبيرات الماسي والأوستن",
        "location": {
            "state": "الجزيرة",
            "city": "الحصاحيصا",
            "address": ""
        },
        "image": "shopimg.webp",
        "specialty": [
            "اسبيرات"
        ],
        "phone": "+249912552165",
        "whatsapp": "+249912552165",
        "isFeatured": false,
        "googleMapsUrl": "https://maps.google.com/?cid=7332654305523714437"
    },
    {
        "id": 180,
        "name": "اليسع البدوي السماني للاسبيرات والاطارات",
        "location": {
            "state": "الجزيرة",
            "city": "الحصاحيصا",
            "address": ""
        },
        "image": "shopimg.webp",
        "specialty": [
            "اسبيرات","اطارات"
        ],
        "phone": "nan",
        "whatsapp": "nan",
        "isFeatured": false,
        "googleMapsUrl": "https://maps.google.com/?cid=1780092559077397972"
    },
    {
        "id": 181,
        "name": "ود المك للاسبيرات",
        "location": {
            "state": "الجزيرة",
            "city": "الحصاحيصا",
            "address": ""
        },
        "image": "shopimg.webp",
        "specialty": [
            "اسبيرات"
        ],
        "phone": "+249911052551",
        "whatsapp": "+249911052551",
        "isFeatured": false,
        "googleMapsUrl": "https://maps.google.com/?cid=7756741397404575204"
    },
    {
        "id": 182,
        "name": "مجاهد للاسبيرات",
        "location": {
            "state": "الجزيرة",
            "city": "الحصاحيصا",
            "address": ""
        },
        "image": "shopimg.webp",
        "specialty": [
            "اسبيرات"
        ],
        "phone": "nan",
        "whatsapp": "nan",
        "isFeatured": false,
        "googleMapsUrl": "https://maps.google.com/?cid=7925399327300557984"
    },
    {
        "id": 183,
        "name": "حسام حمد الطيب للإسبيرات",
        "location": {
            "state": "الجزيرة",
            "city": "الحصاحيصا",
            "address": ""
        },
        "image": "shopimg.webp",
        "specialty": [
            "اسبيرات"
        ],
        "phone": "nan",
        "whatsapp": "nan",
        "isFeatured": false,
        "googleMapsUrl": "https://maps.google.com/?cid=8126071646314450619"
    },
    {
        "id": 184,
        "name": "القمة للإسبيرات",
        "location": {
            "state": "الجزيرة",
            "city": "الحصاحيصا",
            "address": ""
        },
        "image": "shopimg.webp",
        "specialty": [
            "اسبيرات"
        ],
        "phone": "+249918070016",
        "whatsapp": "+249918070016",
        "isFeatured": false,
        "googleMapsUrl": "https://maps.google.com/?cid=11111927500643046041"
    },
    {
        "id": 185,
        "name": "صلاح طلب لقطع السيارات",
        "location": {
            "state": "الجزيرة",
            "city": "الحصاحيصا",
            "address": "المنطقة الصناعية"
        },
        "image": "shopimg.webp",
        "specialty": [
            "اسبيرات"
        ],
        "phone": "nan",
        "whatsapp": "nan",
        "isFeatured": false,
        "googleMapsUrl": "https://maps.google.com/?cid=2887156560206196418"
    },
    {
        "id": 186,
        "name": "حدباي للإسبيرات الكورية",
        "location": {
            "state": "الجزيرة",
            "city": "الحصاحيصا",
            "address": ""
        },
        "image": "shopimg.webp",
        "specialty": [
            "اسبيرات",
            "كوري"
        ],
        "phone": "+249903699359",
        "whatsapp": "+249903699359",
        "isFeatured": false,
        "googleMapsUrl": "https://maps.google.com/?cid=11381625597991617829"
    },
    {
        "id": 187,
        "name": "الرشيد لاسبيرات السيارات",
        "location": {
            "state": "الجزيرة",
            "city": "الحصاحيصا",
            "address": ""
        },
        "image": "shopimg.webp",
        "specialty": [
            "اسبيرات"
        ],
        "phone": "+249118806258",
        "whatsapp": "+249118806258",
        "isFeatured": false,
        "googleMapsUrl": "https://maps.google.com/?cid=10073113148361743241"
    },
    {
        "id": 188,
        "name": "بطاريات الثقة",
        "location": {
            "state": "الجزيرة",
            "city": "الحصاحيصا",
            "address": ""
        },
        "image": "shopimg.webp",
        "specialty": [
            "بطاريات"
        ],
        "phone": "+249915733730",
        "whatsapp": "+24991573373",
        "isFeatured": false,
        "googleMapsUrl": "https://maps.google.com/?cid=7116779473157671122"
    },
    {
        "id": 189,
        "name": "شيخ الدين للكوري والياباني",
        "location": {
            "state": "الجزيرة",
            "city": "الحصاحيصا",
            "address": ""
        },
        "image": "shopimg.webp",
        "specialty": [
            "كوري"
        ],
        "phone": "+249121393358",
        "whatsapp": "+249121393358",
        "isFeatured": false,
        "googleMapsUrl": "https://maps.google.com/?cid=4324791732432098921"
    },
    {
        "id": 190,
        "name": "حسين لمفاتيح وريموتات السيارات",
        "location": {
            "state": "الجزيرة",
            "city": "الحصاحيصا",
            "address": ""
        },
        "image": "shopimg.webp",
        "specialty": [
            "مفاتيح"
        ],
        "phone": "+249966886319",
        "whatsapp": "+249966886319",
        "isFeatured": false,
        "googleMapsUrl": "https://maps.google.com/?cid=4726851011859142681"
    },
    {
        "id": 191,
        "name": "الصعيدي للاسبيرات الكوريه",
        "location": {
            "state": "كسلا",
            "city": "حلفا الجديدة",
            "address": ""
        },
        "image": "shopimg.webp",
        "specialty": [
            "اسبيرات","كوري"
        ],
        "phone": "+249912954770",
        "whatsapp": "+24991295477",
        "isFeatured": false,
        "googleMapsUrl": "https://maps.google.com/?cid=184392084427263657"
    },
    {
        "id": 192,
        "name": "اسبيرات البركة الهادي أحمد ادريس",
        "location": {
            "state": "النيل الأبيض",
            "city": "ربك",
            "address": ""
        },
        "image": "shopimg.webp",
        "specialty": [
            "اسبيرات"
        ],
        "phone": "+249912483319",
        "whatsapp": "+249912483319",
        "isFeatured": false,
        "googleMapsUrl": "https://maps.google.com/?cid=2324538106138855342"
    },
    
    {
        "id": 194,
        "name": "اولاد بريمة للاسبيرات الكورية",
        "location": {
            "state": "الجزيرة",
            "city": "الحصاحيصا",
            "address": ""
        },
        "image": "shopimg.webp",
        "specialty": [
            "اسبيرات","كوري"
        ],
        "phone": "nan",
        "whatsapp": "nan",
        "isFeatured": false,
        "googleMapsUrl": "https://maps.google.com/?cid=106162287270888618"
    },
    {
        "id": 195,
        "name": "الباشا للإسبيرات",
        "location": {
            "state": "شمال دارفور",
            "city": "الفاشر",
            "address": ""
        },
        "image": "shopimg.webp",
        "specialty": [
            "اسبيرات"
        ],
        "phone": "+249915463819",
        "whatsapp": "+249915463819",
        "isFeatured": false,
        "googleMapsUrl": "https://maps.google.com/?cid=16857042831001924585"
    },
    {
        "id": 196,
        "name": "ابوخالد للإسبيرات الكورية الأصلية",
        "location": {
            "state": "الجزيرة",
            "city": "المناقل",
            "address": ""
        },
        "image": "shopimg.webp",
        "specialty": [
            "اسبيرات",
            "كوري"
        ],
        "phone": "+249110889242",
        "whatsapp": "+249110889242",
        "isFeatured": false,
        "googleMapsUrl": "https://maps.google.com/?cid=1961394112822219314"
    },
    {
        "id": 197,
        "name": "محمد ايهاب لقطع الغيار",
        "location": {
            "state": "الجزيرة",
            "city": "المناقل",
            "address": ""
        },
        "image": "shopimg.webp",
        "specialty": [
            "اسبيرات"
        ],
        "phone": "nan",
        "whatsapp": "nan",
        "isFeatured": false,
        "googleMapsUrl": "https://maps.google.com/?cid=4414882015998090939"
    },
    {
        "id": 198,
        "name": "المانجيل لقطع غيار السيارات",
        "location": {
            "state": "الجزيرة",
            "city": "المناقل",
            "address": ""
        },
        "image": "shopimg.webp",
        "specialty": [
            "اسبيرات"
        ],
        "phone": "nan",
        "whatsapp": "nan",
        "isFeatured": false,
        "googleMapsUrl": "https://maps.google.com/?cid=5701288883330628535"
    },
    {
        "id": 199,
        "name": "اولاد كدوك 1 الاسبيرات المواتر والتكاتك",
        "location": {
            "state": "الجزيرة",
            "city": "المناقل",
            "address": ""
        },
        "image": "shopimg.webp",
        "specialty": [
            "اسبيرات"
        ],
        "phone": "nan",
        "whatsapp": "nan",
        "isFeatured": false,
        "googleMapsUrl": "https://maps.google.com/?cid=3582402043632683999"
    },
    {
        "id": 200,
        "name": "المجري لاسبيرات الركشات",
        "location": {
            "state": "الخرطوم",
            "city": "الخرطوم",
            "address": ""
        },
        "image": "shopimg.webp",
        "specialty": [
            "اسبيرات"
        ],
        "phone": "+249911181711",
        "whatsapp": "+249911181711",
        "isFeatured": false,
        "googleMapsUrl": "https://maps.google.com/?cid=1102210615801878140"
    },
    {
        "id": 201,
        "name": "البروف لاسبيرات الركشات",
        "location": {
            "state": "الجزيرة",
            "city": "المناقل",
            "address": ""
        },
        "image": "shopimg.webp",
        "specialty": [
            "اسبيرات"
        ],
        "phone": "nan",
        "whatsapp": "nan",
        "isFeatured": false,
        "googleMapsUrl": "https://maps.google.com/?cid=3719120755150204786"
    },
    {
        "id": 202,
        "name": "ود قنيب للاسبيرات",
        "location": {
            "state": "نهر النيل",
            "city": "مروي",
            "address": ""
        },
        "image": "shopimg.webp",
        "specialty": [
            "اسبيرات"
        ],
        "phone": "+249116695507",
        "whatsapp": "+249116695507",
        "isFeatured": false,
        "googleMapsUrl": "https://maps.google.com/?cid=3159455306700765246"
    },
    {
        "id": 203,
        "name": "إسبيرات الشمالية",
        "location": {
            "state": "نهر النيل",
            "city": "مروي",
            "address": ""
        },
        "image": "shopimg.webp",
        "specialty": [
            "اسبيرات"
        ],
        "phone": "+249123034424",
        "whatsapp": "+249123034424",
        "isFeatured": false,
        "googleMapsUrl": "https://maps.google.com/?cid=2094855395641717062"
    },
    {
        "id": 204,
        "name": "المحمود لقطع غيار السيارات والزجاج",
        "location": {
            "state": "شمال كردفان",
            "city": "الأبيض",
            "address": ""
        },
        "image": "shopimg.webp",
        "specialty": [
            "اسبيرات",
            "زجاج"
        ],
        "phone": "+249912358038",
        "whatsapp": "+249912358038",
        "isFeatured": false,
        "googleMapsUrl": "https://maps.google.com/?cid=13742873604769353112"
    },
    {
        "id": 205,
        "name": "صالح لاسبيرات المواتر والتكاتك",
        "location": {
            "state": "نهر النيل",
            "city": "مروي",
            "address": ""
        },
        "image": "shopimg.webp",
        "specialty": [
            "اسبيرات",
            "مواتر",
            "تكاتك"
        ],
        "phone": "nan",
        "whatsapp": "nan",
        "isFeatured": false,
        "googleMapsUrl": "https://maps.google.com/?cid=4930710320565227192"
    },
    {
        "id": 206,
        "name": "مركز ليان لقطع غيار السيارات",
        "location": {
            "state": "نهر النيل",
            "city": "مروي",
            "address": ""
        },
        "image": "shopimg.webp",
        "specialty": [
            "اسبيرات"
        ],
        "phone": "nan",
        "whatsapp": "nan",
        "isFeatured": false,
        "googleMapsUrl": "https://maps.google.com/?cid=12327858487943652514"
    },
    {
        "id": 207,
        "name": "مركز مراد لصيانة السيارات وقطع الغيار",
        "location": {
            "state": "الشمالية",
            "city": "وادي حلفا",
            "address": ""
        },
        "image": "shopimg.webp",
        "specialty": [
            "اسبيرات"
        ],
        "phone": "+249963585961",
        "whatsapp": "+249963585961",
        "isFeatured": false,
        "googleMapsUrl": "https://maps.google.com/?cid=16167188104819791391"
    },
    {
        "id": 208,
        "name": "كرزاي لقطع غيار السيارات",
        "location": {
            "state": "الخرطوم",
            "city": "أم دوم",
            "address": "شارع الحرفيين"
        },
        "image": "shopimg.webp",
        "specialty": [
            "اسبيرات"
        ],
        "phone": "nan",
        "whatsapp": "nan",
        "isFeatured": false,
        "googleMapsUrl": "https://maps.google.com/?cid=5921168927730655184"
    },
    {
        "id": 209,
        "name": "عوض جعفر للاسبيرات",
        "location": {
            "state": "نهر النيل",
            "city": "مروي",
            "address": ""
        },
        "image": "shopimg.webp",
        "specialty": [
            "اسبيرات"
        ],
        "phone": "nan",
        "whatsapp": "nan",
        "isFeatured": false,
        "googleMapsUrl": "https://maps.google.com/?cid=9873703860459765061"
    },
    {
        "id": 210,
        "name": "اعمال العجايبي التجارية",
        "location": {
            "state": "نهر النيل",
            "city": "مروي",
            "address": ""
        },
        "image": "shopimg.webp",
        "specialty": [
            "اسبيرات"
        ],
        "phone": "nan",
        "whatsapp": "nan",
        "isFeatured": false,
        "googleMapsUrl": "https://maps.google.com/?cid=6711579707145445610"
    },
    {
        "id": 211,
        "name": "راشد للاسبيرات",
        "location": {
            "state": "نهر النيل",
            "city": "مروي",
            "address": ""
        },
        "image": "shopimg.webp",
        "specialty": [
            "اسبيرات"
        ],
        "phone": "nan",
        "whatsapp": "nan",
        "isFeatured": false,
        "googleMapsUrl": "https://maps.google.com/?cid=789646005449632539"
    },
    {
        "id": 212,
        "name": "اولاد شرف الدين لاسبيرات التكاتك",
        "location": {
            "state": "نهر النيل",
            "city": "مروي",
            "address": ""
        },
        "image": "shopimg.webp",
        "specialty": [
            "اسبيرات"
        ],
        "phone": "nan",
        "whatsapp": "nan",
        "isFeatured": false,
        "googleMapsUrl": "https://maps.google.com/?cid=2517383729714144886"
    },
    {
        "id": 214,
        "name": "العقرباوي للاسبيرات الكورية و البابانية",
        "location": {
            "state": "نهر النيل",
            "city": "مروي",
            "address": ""
        },
        "image": "shopimg.webp",
        "specialty": [
            "اسبيرات","كوري",
            "ياباني"
        ],
        "phone": "nan",
        "whatsapp": "nan",
        "isFeatured": false,
        "googleMapsUrl": "https://maps.google.com/?cid=4038335184692379969"
    },
    {
        "id": 215,
        "name": "الضرغام للاسبيرات الكورية واليابانية",
        "location": {
            "state": "الشمالية",
            "city": "دنقلا",
            "address": ""
        },
        "image": "shopimg.webp",
        "specialty": [
            "اسبيرات","كوري",
            "ياباني"
        ],
        "phone": "+249122533747",
        "whatsapp": "+249122533747",
        "isFeatured": false,
        "googleMapsUrl": "https://maps.google.com/?cid=5679256232271992232"
    },
    {
        "id": 216,
        "name": "طلبكو لجميع قطع غيار السيارات",
        "location": {
            "state": "الشمالية",
            "city": "دنقلا",
            "address": ""
        },
        "image": "shopimg.webp",
        "specialty": [
            "اسبيرات"
        ],
        "phone": "+249123116411",
        "whatsapp": "+249123116411",
        "isFeatured": false,
        "googleMapsUrl": "https://maps.google.com/?cid=17885967409425690035"
    },
    {
        "id": 217,
        "name": "أعمال المرشد للإسبيرات الكورية",
        "location": {
            "state": "الشمالية",
            "city": "دنقلا",
            "address": "السوق الشعبي"
        },
        "image": "shopimg.webp",
        "specialty": [
            "اسبيرات",
            "كوري"
        ],
        "phone": "+249912629262",
        "whatsapp": "+249912629262",
        "isFeatured": false,
        "googleMapsUrl": "https://maps.google.com/?cid=16769524173541559381"
    },
    {
        "id": 218,
        "name": "ابو عمرو للاسبيرات",
        "location": {
            "state": "الشمالية",
            "city": "دنقلا",
            "address": ""
        },
        "image": "shopimg.webp",
        "specialty": [
            "اسبيرات"
        ],
        "phone": "+249122015173",
        "whatsapp": "+249122015173",
        "isFeatured": false,
        "googleMapsUrl": "https://maps.google.com/?cid=883036956167866319"
    },
    {
        "id": 219,
        "name": "العاصمة لقطع غيار السيارات",
        "location": {
            "state": "الشمالية",
            "city": "دنقلا",
            "address": ""
        },
        "image": "shopimg.webp",
        "specialty": [
            "اسبيرات"
        ],
        "phone": "+249910006934",
        "whatsapp": "+249910006934",
        "isFeatured": false,
        "googleMapsUrl": "https://maps.google.com/?cid=1488307900223824427"
    },
    {
        "id": 220,
        "name": "شركة سابنتود",
        "location": {
            "state": "الشمالية",
            "city": "دنقلا",
            "address": ""
        },
        "image": "shopimg.webp",
        "specialty": [
            "اسبيرات"
        ],
        "phone": "+249125333000",
        "whatsapp": "+24912533300",
        "isFeatured": false,
        "googleMapsUrl": "https://maps.google.com/?cid=17104050412323955716"
    },
    {
        "id": 221,
        "name": "محمد عبد المطلب لقطع غيار السيارات الكورية الاصلية",
        "location": {
            "state": "الشمالية",
            "city": "دنقلا",
            "address": ""
        },
        "image": "shopimg.webp",
        "specialty": [
            "اسبيرات",
            "كوري"
        ],
        "phone": "+249123001018",
        "whatsapp": "+249123001018",
        "isFeatured": false,
        "googleMapsUrl": "https://maps.google.com/?cid=15884192134605996134"
    },
    {
        "id": 222,
        "name": "اولاد يعقوب لاسبيرات السيارات",
        "location": {
            "state": "الشمالية",
            "city": "دنقلا",
            "address": ""
        },
        "image": "shopimg.webp",
        "specialty": [
            "اسبيرات"
        ],
        "phone": "+249124574373",
        "whatsapp": "+249124574373",
        "isFeatured": false,
        "googleMapsUrl": "https://maps.google.com/?cid=7178576365067593832"
    },
    {
        "id": 223,
        "name": "نوري لقطع غيار السيارات",
        "location": {
            "state": "الشمالية",
            "city": "دنقلا",
            "address": ""
        },
        "image": "shopimg.webp",
        "specialty": [
            "اسبيرات"
        ],
        "phone": "+249110045145",
        "whatsapp": "+249110045145",
        "isFeatured": false,
        "googleMapsUrl": "https://maps.google.com/?cid=11977136986669704289"
    },
    {
        "id": 224,
        "name": "اعمال محمد علي الفضل التجارية - فرع دنقلا",
        "location": {
            "state": "الشمالية",
            "city": "دنقلا",
            "address": ""
        },
        "image": "shopimg.webp",
        "specialty": [
            "اسبيرات"
        ],
        "phone": "+249912343353",
        "whatsapp": "+249912343353",
        "isFeatured": false,
        "googleMapsUrl": "https://maps.google.com/?cid=15547390252769451765"
    },
    {
        "id": 225,
        "name": "كرزاي لقطع غيار السيارات",
        "location": {
            "state": "الشمالية",
            "city": "دنقلا",
            "address": "شارع المنطقة الصناعية"
        },
        "image": "shopimg.webp",
        "specialty": [
            "اسبيرات"
        ],
        "phone": "nan",
        "whatsapp": "nan",
        "isFeatured": false,
        "googleMapsUrl": "https://maps.google.com/?cid=59686960093557828"
    },
    {
        "id": 226,
        "name": "اولادابراهيم جلال الدين للاسبيرات",
        "location": {
            "state": "الشمالية",
            "city": "دنقلا",
            "address": "جوار ميدان المولد"
        },
        "image": "shopimg.webp",
        "specialty": [
            "اسبيرات"
        ],
        "phone": "+249915161953",
        "whatsapp": "+249915161953",
        "isFeatured": false,
        "googleMapsUrl": "https://maps.google.com/?cid=14657654775980133134"
    },
    {
        "id": 227,
        "name": "الاشقاء لقطع غيار الشاحنات",
        "location": {
            "state": "البحر الأحمر",
            "city": "بورتسودان",
            "address": "الشاحنات"
        },
        "image": "shopimg.webp",
        "specialty": [
            "اسبيرات",
            "شاحنات"
        ],
        "phone": "nan",
        "whatsapp": "nan",
        "isFeatured": false,
        "googleMapsUrl": "https://maps.google.com/?cid=6778935646519459016"
    },
    {
        "id": 228,
        "name": "مركز تايوتا",
        "location": {
            "state": "الشمالية",
            "city": "دنقلا",
            "address": ""
        },
        "image": "shopimg.webp",
        "specialty": [
            "اسبيرات",
            "تويوتا"
        ],
        "phone": "nan",
        "whatsapp": "nan",
        "isFeatured": false,
        "googleMapsUrl": "https://maps.google.com/?cid=14059303167269263880"
    },
    {
        "id": 229,
        "name": "اولاد ابراهيم جلال لاسبيرات المواتر",
        "location": {
            "state": "الشمالية",
            "city": "دنقلا",
            "address": ""
        },
        "image": "shopimg.webp",
        "specialty": [
            "اسبيرات"
        ],
        "phone": "nan",
        "whatsapp": "nan",
        "isFeatured": false,
        "googleMapsUrl": "https://maps.google.com/?cid=16314217229003272535"
    },
    {
        "id": 230,
        "name": "اسبيرات النيل",
        "location": {
            "state": "نهر النيل",
            "city": "الدامر",
            "address": ""
        },
        "image": "shopimg.webp",
        "specialty": [
            "اسبيرات"
        ],
        "phone": "+2491+24908272",
        "whatsapp": "+2491+24908272",
        "isFeatured": false,
        "googleMapsUrl": "https://maps.google.com/?cid=7689259088412268304"
    },
    {
        "id": 231,
        "name": "كنزي للاسبيرات والزينة",
        "location": {
            "state": "الشمالية",
            "city": "دنقلا",
            "address": ""
        },
        "image": "shopimg.webp",
        "specialty": [
            "اسبيرات"
        ],
        "phone": "nan",
        "whatsapp": "nan",
        "isFeatured": false,
        "googleMapsUrl": "https://maps.google.com/?cid=14267056020330922541"
    },
    {
        "id": 232,
        "name": "الشيخ للإسبيرات",
        "location": {
            "state": "نهر النيل",
            "city": "كريمة",
            "address": "شارع المستشفى"
        },
        "image": "shopimg.webp",
        "specialty": [
            "اسبيرات"
        ],
        "phone": "+249120769631",
        "whatsapp": "+249120769631",
        "isFeatured": false,
        "googleMapsUrl": "https://maps.google.com/?cid=770876365984366207"
    },
    {
        "id": 233,
        "name": "مجموعة الاخوه التجاريه للاسبيرات والزينه والإستيكرات",
        "location": {
            "state": "نهر النيل",
            "city": "كريمة",
            "address": ""
        },
        "image": "shopimg.webp",
        "specialty": [
            "اسبيرات"
        ],
        "phone": "nan",
        "whatsapp": "nan",
        "isFeatured": false,
        "googleMapsUrl": "https://maps.google.com/?cid=14902615469182105634"
    },
    {
        "id": 234,
        "name": "إسبيرات الشمالية",
        "location": {
            "state": "نهر النيل",
            "city": "مروي",
            "address": ""
        },
        "image": "shopimg.webp",
        "specialty": [
            "اسبيرات"
        ],
        "phone": "+249123034424",
        "whatsapp": "+249123034424",
        "isFeatured": false,
        "googleMapsUrl": "https://maps.google.com/?cid=2094855395641717062"
    },
    {
        "id": 235,
        "name": "ود قنيب للاسبيرات",
        "location": {
            "state": "نهر النيل",
            "city": "مروي",
            "address": ""
        },
        "image": "shopimg.webp",
        "specialty": [
            "اسبيرات"
        ],
        "phone": "+249116695507",
        "whatsapp": "+249116695507",
        "isFeatured": false,
        "googleMapsUrl": "https://maps.google.com/?cid=3159455306700765246"
    },
    {
        "id": 236,
        "name": "شركه الباسقات التجاريه",
        "location": {
            "state": "نهر النيل",
            "city": "كريمة",
            "address": ""
        },
        "image": "shopimg.webp",
        "specialty": [
            "اسبيرات"
        ],
        "phone": "nan",
        "whatsapp": "nan",
        "isFeatured": false,
        "googleMapsUrl": "https://maps.google.com/?cid=13242041787634155207"
    },
    {
        "id": 237,
        "name": "مركز ليان لقطع غيار السيارات",
        "location": {
            "state": "نهر النيل",
            "city": "مروي",
            "address": ""
        },
        "image": "shopimg.webp",
        "specialty": [
            "اسبيرات"
        ],
        "phone": "nan",
        "whatsapp": "nan",
        "isFeatured": false,
        "googleMapsUrl": "https://maps.google.com/?cid=12327858487943652514"
    },
    {
        "id": 238,
        "name": "صالح لاسبيرات المواتر والتكاتك",
        "location": {
            "state": "نهر النيل",
            "city": "مروي",
            "address": ""
        },
        "image": "shopimg.webp",
        "specialty": [
            "اسبيرات",
            "مواتر",
            "تكاتك"
        ],
        "phone": "nan",
        "whatsapp": "nan",
        "isFeatured": false,
        "googleMapsUrl": "https://maps.google.com/?cid=4930710320565227192"
    },
    {
        "id": 239,
        "name": "عوض جعفر للاسبيرات",
        "location": {
            "state": "نهر النيل",
            "city": "مروي",
            "address": ""
        },
        "image": "shopimg.webp",
        "specialty": [
            "اسبيرات"
        ],
        "phone": "nan",
        "whatsapp": "nan",
        "isFeatured": false,
        "googleMapsUrl": "https://maps.google.com/?cid=9873703860459765061"
    },
    {
        "id": 240,
        "name": "اولاد شرف الدين لاسبيرات التكاتك",
        "location": {
            "state": "نهر النيل",
            "city": "مروي",
            "address": ""
        },
        "image": "shopimg.webp",
        "specialty": [
            "اسبيرات"
        ],
        "phone": "nan",
        "whatsapp": "nan",
        "isFeatured": false,
        "googleMapsUrl": "https://maps.google.com/?cid=2517383729714144886"
    },
    {
        "id": 241,
        "name": "اعمال العجايبي التجارية",
        "location": {
            "state": "نهر النيل",
            "city": "مروي",
            "address": ""
        },
        "image": "shopimg.webp",
        "specialty": [
            "اسبيرات"
        ],
        "phone": "nan",
        "whatsapp": "nan",
        "isFeatured": false,
        "googleMapsUrl": "https://maps.google.com/?cid=6711579707145445610"
    },
    {
        "id": 243,
        "name": "احمد سيداحمد الحسون للزيوت والبطاريات والفلاتر",
        "location": {
            "state": "نهر النيل",
            "city": "كريمة",
            "address": ""
        },
        "image": "shopimg.webp",
        "specialty": [
            "زيوت"
        ],
        "phone": "nan",
        "whatsapp": "nan",
        "isFeatured": false,
        "googleMapsUrl": "https://maps.google.com/?cid=12114489460831679137"
    },
    {
        "id": 244,
        "name": "راشد للاسبيرات",
        "location": {
            "state": "نهر النيل",
            "city": "مروي",
            "address": ""
        },
        "image": "shopimg.webp",
        "specialty": [
            "اسبيرات"
        ],
        "phone": "nan",
        "whatsapp": "nan",
        "isFeatured": false,
        "googleMapsUrl": "https://maps.google.com/?cid=789646005449632539"
    },
    {
        "id": 245,
        "name": "مجموعة سابنتود لقطع الغيار",
        "location": {
            "state": "الخرطوم",
            "city": "أم درمان",
            "address": "شارع العرضة"
        },
        "image": "shopimg.webp",
        "specialty": [
            "اسبيرات"
        ],
        "phone": "+249915666662",
        "whatsapp": "+249915666662",
        "isFeatured": false,
        "googleMapsUrl": "https://maps.google.com/?cid=4313916918049968638"
    },
    {
        "id": 246,
        "name": "الإخوة للاسبيرات والاطارات والزيوت والبطاريات",
        "location": {
            "state": "الخرطوم",
            "city": "أم درمان",
            "address": ""
        },
        "image": "shopimg.webp",
        "specialty": [
            "اسبيرات","زيوت","اطارات","بطاريات"
        ],
        "phone": "+249124024061",
        "whatsapp": "+249124024061",
        "isFeatured": false,
        "googleMapsUrl": "https://maps.google.com/?cid=3655533130426080041"
    },
    {
        "id": 247,
        "name": "خواطر للاسبيرات",
        "location": {
            "state": "الخرطوم",
            "city": "أم درمان",
            "address": "ابوسعد"
        },
        "image": "shopimg.webp",
        "specialty": [
            "اسبيرات"
        ],
        "phone": "+249912977973",
        "whatsapp": "+249912977973",
        "isFeatured": false,
        "googleMapsUrl": "https://maps.google.com/?cid=1886022806294575651"
    },
    {
        "id": 248,
        "name": "مصعب لقطع غيار الهينو و وزد إس الاصلية",
        "location": {
            "state": "الخرطوم",
            "city": "أم درمان",
            "address": ""
        },
        "image": "shopimg.webp",
        "specialty": [
            "اسبيرات",
            "هينو",
            "زد إس"
        ],
        "phone": "+249912172882",
        "whatsapp": "+249912172882",
        "isFeatured": false,
        "googleMapsUrl": "https://maps.google.com/?cid=8900220376733268308"
    },
    {
        "id": 249,
        "name": "مركز النيسان لقطع غيار السيارات",
        "location": {
            "state": "الخرطوم",
            "city": "أم درمان",
            "address": ""
        },
        "image": "shopimg.webp",
        "specialty": [
            "اسبيرات",
            "ياباني",
            "نيسان"
        ],
        "phone": "+249918172587",
        "whatsapp": "+249918172587",
        "isFeatured": false,
        "googleMapsUrl": "https://maps.google.com/?cid=2672164401993190208"
    },
    {
        "id": 250,
        "name": "ودودة العالمية لقطع غيار السيارات الكورية الأصلية",
        "location": {
            "state": "الخرطوم",
            "city": "أم درمان",
            "address": ""
        },
        "image": "shopimg.webp",
        "specialty": [
            "كوري"
        ],
        "phone": "+249124820323",
        "whatsapp": "+249124820323",
        "isFeatured": false,
        "googleMapsUrl": "https://maps.google.com/?cid=2028836322896705582"
    },
    {
        "id": 251,
        "name": "دكينابي 1 للاسبيرات",
        "location": {
            "state": "الخرطوم",
            "city": "أم درمان",
            "address": ""
        },
        "image": "shopimg.webp",
        "specialty": [
            "اسبيرات"
        ],
        "phone": "+249999918521",
        "whatsapp": "+249999918521",
        "isFeatured": false,
        "googleMapsUrl": "https://maps.google.com/?cid=18291267302213+249811"
    },
    {
        "id": 252,
        "name": "المركز الحديث للكوري",
        "location": {
            "state": "الخرطوم",
            "city": "أم درمان",
            "address": "شارع إستاد الهلال"
        },
        "image": "shopimg.webp",
        "specialty": [
            "اسبيرات",
            "كوري"
        ],
        "phone": "+249123308309",
        "whatsapp": "+249123308309",
        "isFeatured": false,
        "googleMapsUrl": "https://maps.google.com/?cid=10016015780563295199"
    },
    {
        "id": 253,
        "name": "بيت الاصلي لقطع غيار الهينو والجربوكس",
        "location": {
            "state": "الخرطوم",
            "city": "أم درمان",
            "address": ""
        },
        "image": "shopimg.webp",
        "specialty": [
            "اسبيرات",
            "هينو"
        ],
        "phone": "+249912396311",
        "whatsapp": "+249912396311",
        "isFeatured": false,
        "googleMapsUrl": "https://maps.google.com/?cid=17744943650419609281"
    },
    {
        "id": 254,
        "name": "مجموعة عبدالرحيم المتحدة",
        "location": {
            "state": "الخرطوم",
            "city": "أم درمان",
            "address": ""
        },
        "image": "shopimg.webp",
        "specialty": [
            "اسبيرات"
        ],
        "phone": "+249115506259",
        "whatsapp": "+249115506259",
        "isFeatured": false,
        "googleMapsUrl": "https://maps.google.com/?cid=9575514278098592090"
    },
    {
        "id": 255,
        "name": "الاسعد لقطع غيار الهينو",
        "location": {
            "state": "الخرطوم",
            "city": "أم درمان",
            "address": ""
        },
        "image": "shopimg.webp",
        "specialty": [
            "اسبيرات",
            "هينو"
        ],
        "phone": "+249912311121",
        "whatsapp": "+249912311121",
        "isFeatured": false,
        "googleMapsUrl": "https://maps.google.com/?cid=8017390164546330873"
    },
    {
        "id": 256,
        "name": "العالمي لقطع غيار السيارات الكورية",
        "location": {
            "state": "الخرطوم",
            "city": "أم درمان",
            "address": ""
        },
        "image": "shopimg.webp",
        "specialty": [
            "اسبيرات",
            "كوري"
        ],
        "phone": "nan",
        "whatsapp": "nan",
        "isFeatured": false,
        "googleMapsUrl": "https://maps.google.com/?cid=16081549430965894516"
    },
    {
        "id": 257,
        "name": "شركة الطحاوي للإسبيرات الصينية",
        "location": {
            "state": "الخرطوم",
            "city": "أم درمان",
            "address": "شارع الشنقيطي"
        },
        "image": "shopimg.webp",
        "specialty": [
            "اسبيرات",
            "صيني"
        ],
        "phone": "+249966604999",
        "whatsapp": "+249966604999",
        "isFeatured": false,
        "googleMapsUrl": "https://maps.google.com/?cid=510660524341138777"
    },
    {
        "id": 258,
        "name": "المتوكل لاسبيرات البيتفورد",
        "location": {
            "state": "الخرطوم",
            "city": "أم درمان",
            "address": ""
        },
        "image": "shopimg.webp",
        "specialty": [
            "اسبيرات",
            "بدفورد"
        ],
        "phone": "nan",
        "whatsapp": "nan",
        "isFeatured": false,
        "googleMapsUrl": "https://maps.google.com/?cid=17160269621330583253"
    },
    {
        "id": 259,
        "name": "الوصال للمتسوبيشي",
        "location": {
            "state": "الخرطوم",
            "city": "أم درمان",
            "address": ""
        },
        "image": "shopimg.webp",
        "specialty": [
            "اسبيرات",
            "ياباني",
            "ميتسوبيشي"
        ],
        "phone": "+249114000046",
        "whatsapp": "+249114000046",
        "isFeatured": false,
        "googleMapsUrl": "https://maps.google.com/?cid=16818634837144569946"
    },
    {
        "id": 260,
        "name": "اعمال محمود الاحمدي التجارية للمتسوبيشي",
        "location": {
            "state": "الخرطوم",
            "city": "أم درمان",
            "address": ""
        },
        "image": "shopimg.webp",
        "specialty": [
            "اسبيرات",
            "ياباني",
            "ميتسوبيشي"
        ],
        "phone": "+249123080999",
        "whatsapp": "+249123080999",
        "isFeatured": false,
        "googleMapsUrl": "https://maps.google.com/?cid=9710436048575460812"
    },
    {
        "id": 261,
        "name": "الأستاذ البكري للأسبيرات",
        "location": {
            "state": "الخرطوم",
            "city": "أم درمان",
            "address": ""
        },
        "image": "shopimg.webp",
        "specialty": [
            "اسبيرات"
        ],
        "phone": "+249905417090",
        "whatsapp": "+24990541709",
        "isFeatured": false,
        "googleMapsUrl": "https://maps.google.com/?cid=11254852682966311413"
    },
    {
        "id": 262,
        "name": "مجمع التاج للإسبيرات الكورية",
        "location": {
            "state": "الخرطوم",
            "city": "أم درمان",
            "address": ""
        },
        "image": "shopimg.webp",
        "specialty": [
            "اسبيرات",
            "كوري"
        ],
        "phone": "+249912413308",
        "whatsapp": "+249912413308",
        "isFeatured": false,
        "googleMapsUrl": "https://maps.google.com/?cid=3291550453663505323"
    },
    {
        "id": 263,
        "name": "نصرتود لقطع الغيار",
        "location": {
            "state": "الخرطوم",
            "city": "أم درمان",
            "address": "ابوسعد"
        },
        "image": "shopimg.webp",
        "specialty": [
            "اسبيرات"
        ],
        "phone": "+249911207442",
        "whatsapp": "+249911207442",
        "isFeatured": false,
        "googleMapsUrl": "https://maps.google.com/?cid=6140158545599686672"
    },
    {
        "id": 264,
        "name": "المركز الكوري للاسبيرات الكورية",
        "location": {
            "state": "الخرطوم",
            "city": "أم درمان",
            "address": ""
        },
        "image": "shopimg.webp",
        "specialty": [
            "اسبيرات","كوري"
        ],
        "phone": "+249113597279",
        "whatsapp": "+249113597279",
        "isFeatured": false,
        "googleMapsUrl": "https://maps.google.com/?cid=4309117385207237807"
    },
    {
        "id": 265,
        "name": "أولاد الاشقر للاسبيرات",
        "location": {
            "state": "النيل الأبيض",
            "city": "كوستي",
            "address": ""
        },
        "image": "shopimg.webp",
        "specialty": [
            "اسبيرات"
        ],
        "phone": "+249910140415",
        "whatsapp": "+249910140415",
        "isFeatured": false,
        "googleMapsUrl": "https://maps.google.com/?cid=11890228405168783859"
    },
    {
        "id": 266,
        "name": "أعمال الحازم التجارية",
        "location": {
            "state": "النيل الأبيض",
            "city": "كوستي",
            "address": ""
        },
        "image": "shopimg.webp",
        "specialty": [
            "اسبيرات"
        ],
        "phone": "+249910140415",
        "whatsapp": "+249910140415",
        "isFeatured": false,
        "googleMapsUrl": "https://maps.google.com/?cid=11960668091245450756"
    },
    {
        "id": 267,
        "name": "محمدالمنصورة للاسبيرات",
        "location": {
            "state": "النيل الأبيض",
            "city": "كوستي",
            "address": ""
        },
        "image": "shopimg.webp",
        "specialty": [
            "اسبيرات"
        ],
        "phone": "+249915649088",
        "whatsapp": "+249915649088",
        "isFeatured": false,
        "googleMapsUrl": "https://maps.google.com/?cid=16768438990052940867"
    },
    {
        "id": 268,
        "name": "أعمال عمر علوان لقطع غيار السيارات",
        "location": {
            "state": "النيل الأبيض",
            "city": "كوستي",
            "address": ""
        },
        "image": "shopimg.webp",
        "specialty": [
            "اسبيرات"
        ],
        "phone": "+249912298317",
        "whatsapp": "+249912298317",
        "isFeatured": false,
        "googleMapsUrl": "https://maps.google.com/?cid=9528820096323015368"
    },
    {
        "id": 269,
        "name": "عبدالباسط للاسبيرات الكورية و اليابانية",
        "location": {
            "state": "النيل الأبيض",
            "city": "كوستي",
            "address": ""
        },
        "image": "shopimg.webp",
        "specialty": [
            "اسبيرات","كوري"
        ],
        "phone": "+249912484917",
        "whatsapp": "+249912484917",
        "isFeatured": false,
        "googleMapsUrl": "https://maps.google.com/?cid=14866872747987267917"
    },
    {
        "id": 270,
        "name": "ود دفع الله للاسبيرات الكورية واليابانية",
        "location": {
            "state": "النيل الأبيض",
            "city": "كوستي",
            "address": ""
        },
        "image": "shopimg.webp",
        "specialty": [
            "اسبيرات","كوري"
        ],
        "phone": "nan",
        "whatsapp": "nan",
        "isFeatured": false,
        "googleMapsUrl": "https://maps.google.com/?cid=14576260702389179"
    },
    {
        "id": 271,
        "name": "يوسفكو لاسبيرات السيارات",
        "location": {
            "state": "النيل الأبيض",
            "city": "كوستي",
            "address": ""
        },
        "image": "shopimg.webp",
        "specialty": [
            "اسبيرات"
        ],
        "phone": "+249966810111",
        "whatsapp": "+249966810111",
        "isFeatured": false,
        "googleMapsUrl": "https://maps.google.com/?cid=9813580430306515323"
    },
    {
        "id": 272,
        "name": "محمد الشاذلي لاسبيرات السكند",
        "location": {
            "state": "النيل الأبيض",
            "city": "كوستي",
            "address": ""
        },
        "image": "shopimg.webp",
        "specialty": [
            "اسبيرات"
        ],
        "phone": "+249111083961",
        "whatsapp": "+249111083961",
        "isFeatured": false,
        "googleMapsUrl": "https://maps.google.com/?cid=17159026165014220515"
    },
    {
        "id": 273,
        "name": "اسطفانوس لإسبيرات الركشات",
        "location": {
            "state": "النيل الأبيض",
            "city": "كوستي",
            "address": ""
        },
        "image": "shopimg.webp",
        "specialty": [
            "اسبيرات",
            "ركشات"
        ],
        "phone": "nan",
        "whatsapp": "nan",
        "isFeatured": false,
        "googleMapsUrl": "https://maps.google.com/?cid=17300157820665108036"
    },
    {
        "id": 274,
        "name": "القرينابي للاسبيرات",
        "location": {
            "state": "النيل الأبيض",
            "city": "كوستي",
            "address": ""
        },
        "image": "shopimg.webp",
        "specialty": [
            "اسبيرات"
        ],
        "phone": "+249912171878",
        "whatsapp": "+249912171878",
        "isFeatured": false,
        "googleMapsUrl": "https://maps.google.com/?cid=15265252287749602819"
    },
    {
        "id": 275,
        "name": "الحلو للاسبيرات الكورية",
        "location": {
            "state": "النيل الأبيض",
            "city": "كوستي",
            "address": "مدرسة القديمة الثانوية بنات"
        },
        "image": "shopimg.webp",
        "specialty": [
            "اسبيرات","كوري"
        ],
        "phone": "+249122706507",
        "whatsapp": "+249122706507",
        "isFeatured": false,
        "googleMapsUrl": "https://maps.google.com/?cid=12060549324661265569"
    },
    {
        "id": 276,
        "name": "كرمت للاسبيرات الكوريه",
        "location": {
            "state": "النيل الأبيض",
            "city": "كوستي",
            "address": ""
        },
        "image": "shopimg.webp",
        "specialty": [
            "اسبيرات","كوري"
        ],
        "phone": "+249123800880",
        "whatsapp": "+24912380088",
        "isFeatured": false,
        "googleMapsUrl": "https://maps.google.com/?cid=6114174054821338127"
    },
    {
        "id": 277,
        "name": "بدماسي لزينة واسبيرات الركشات والمواتر",
        "location": {
            "state": "النيل الأبيض",
            "city": "كوستي",
            "address": ""
        },
        "image": "shopimg.webp",
        "specialty": [
            "اسبيرات"
        ],
        "phone": "+249913343330",
        "whatsapp": "+24991334333",
        "isFeatured": false,
        "googleMapsUrl": "https://maps.google.com/?cid=6192798879452964040"
    },
    {
        "id": 278,
        "name": "اسبيرات البركة",
        "location": {
            "state": "النيل الأبيض",
            "city": "ربك",
            "address": ""
        },
        "image": "shopimg.webp",
        "specialty": [
            "اسبيرات"
        ],
        "phone": "+249912483319",
        "whatsapp": "+249912483319",
        "isFeatured": false,
        "googleMapsUrl": "https://maps.google.com/?cid=2324538106138855342"
    },
    {
        "id": 279,
        "name": "جنجا  للاسبيرات وصيانة الركشات",
        "location": {
            "state": "النيل الأبيض",
            "city": "كوستي",
            "address": ""
        },
        "image": "shopimg.webp",
        "specialty": [
            "اسبيرات"
        ],
        "phone": "nan",
        "whatsapp": "nan",
        "isFeatured": false,
        "googleMapsUrl": "https://maps.google.com/?cid=17090259897457680080"
    },
    {
        "id": 280,
        "name": "الماحي للإسبيرات",
        "location": {
            "state": "النيل الأبيض",
            "city": "كوستي",
            "address": ""
        },
        "image": "shopimg.webp",
        "specialty": [
            "اسبيرات"
        ],
        "phone": "+249912953662",
        "whatsapp": "+249912953662",
        "isFeatured": false,
        "googleMapsUrl": "https://maps.google.com/?cid=10759159427679194528"
    },
    {
        "id": 281,
        "name": "شركة كات CAT",
        "location": {
            "state": "النيل الأبيض",
            "city": "كوستي",
            "address": ""
        },
        "image": "shopimg.webp",
        "specialty": [
            "اليات ثقيلة",
            "كات"
        ],
        "phone": "nan",
        "whatsapp": "nan",
        "isFeatured": false,
        "googleMapsUrl": "https://maps.google.com/?cid=15272316758616358493"
    },
    {
        "id": 282,
        "name": "بكري لإسبيرات الهينو الاصلية",
        "location": {
            "state": "النيل الأبيض",
            "city": "ربك",
            "address": ""
        },
        "image": "shopimg.webp",
        "specialty": [
            "اسبيرات",
            "هينو"
        ],
        "phone": "+249128845443",
        "whatsapp": "+249128845443",
        "isFeatured": false,
        "googleMapsUrl": "https://maps.google.com/?cid=13159606329860322246"
    },
    {
        "id": 283,
        "name": "ودالغالي لاسبيرات الهائس3L-5L",
        "location": {
            "state": "النيل الأبيض",
            "city": "كوستي",
            "address": ""
        },
        "image": "shopimg.webp",
        "specialty": [
            "اسبيرات"
        ],
        "phone": "nan",
        "whatsapp": "nan",
        "isFeatured": false,
        "googleMapsUrl": "https://maps.google.com/?cid=17337199406162615328"
    },
    {
        "id": 284,
        "name": "اسبيرات البركة الهادي",
        "location": {
            "state": "النيل الأبيض",
            "city": "ربك",
            "address": ""
        },
        "image": "shopimg.webp",
        "specialty": [
            "اسبيرات"
        ],
        "phone": "+249912483319",
        "whatsapp": "+249912483319",
        "isFeatured": false,
        "googleMapsUrl": "https://maps.google.com/?cid=2324538106138855342"
    },
    {
        "id": 285,
        "name": "بكري لإسبيرات الهينو الاصلية",
        "location": {
            "state": "النيل الأبيض",
            "city": "ربك",
            "address": ""
        },
        "image": "shopimg.webp",
        "specialty": [
            "اسبيرات",
            "هينو"
        ],
        "phone": "+249128845443",
        "whatsapp": "+249128845443",
        "isFeatured": false,
        "googleMapsUrl": "https://maps.google.com/?cid=13159606329860322246"
    },
    {
        "id": 286,
        "name": "ادور للاسبيرات اليابانيه",
        "location": {
            "state": "النيل الأبيض",
            "city": "ربك",
            "address": ""
        },
        "image": "shopimg.webp",
        "specialty": [
            "اسبيرات",
            "ياباني"
        ],
        "phone": "nan",
        "whatsapp": "nan",
        "isFeatured": false,
        "googleMapsUrl": "https://maps.google.com/?cid=2144262615547589539"
    },
    {
        "id": 287,
        "name": "اسبيرات بابكر عامر",
        "location": {
            "state": "النيل الأبيض",
            "city": "ربك",
            "address": ""
        },
        "image": "shopimg.webp",
        "specialty": [
            "اسبيرات"
        ],
        "phone": "+249123705515",
        "whatsapp": "+249123705515",
        "isFeatured": false,
        "googleMapsUrl": "https://maps.google.com/?cid=7636459074715039375"
    },
    {
        "id": 288,
        "name": "البسبراوي لزينة السيارات",
        "location": {
            "state": "النيل الأبيض",
            "city": "ربك",
            "address": ""
        },
        "image": "shopimg.webp",
        "specialty": [
            "زينة"
        ],
        "phone": "+249912350027",
        "whatsapp": "+249912350027",
        "isFeatured": false,
        "googleMapsUrl": "https://maps.google.com/?cid=3532809731824118555"
    },
    {
        "id": 289,
        "name": "مركز توزيع زيوت آر بلو",
        "location": {
            "state": "النيل الأبيض",
            "city": "ربك",
            "address": ""
        },
        "image": "shopimg.webp",
        "specialty": [
            "زيوت"
        ],
        "phone": "+249110911553",
        "whatsapp": "+249110911553",
        "isFeatured": false,
        "googleMapsUrl": "https://maps.google.com/?cid=17155771201722965075"
    },
    {
        "id": 290,
        "name": "اسبيرات صديق شنكل",
        "location": {
            "state": "النيل الأبيض",
            "city": "ربك",
            "address": ""
        },
        "image": "shopimg.webp",
        "specialty": [
            "اسبيرات"
        ],
        "phone": "nan",
        "whatsapp": "nan",
        "isFeatured": false,
        "googleMapsUrl": "https://maps.google.com/?cid=449762523778796459"
    },
    {
        "id": 291,
        "name": "بلال للاسبيرات",
        "location": {
            "state": "النيل الأبيض",
            "city": "ربك",
            "address": ""
        },
        "image": "shopimg.webp",
        "specialty": [
            "اسبيرات"
        ],
        "phone": "+249113056512",
        "whatsapp": "+249113056512",
        "isFeatured": false,
        "googleMapsUrl": "https://maps.google.com/?cid=4111076434684105295"
    },
    {
        "id": 292,
        "name": "بابكر الكناني للإسبيرات",
        "location": {
            "state": "النيل الأبيض",
            "city": "ربك",
            "address": ""
        },
        "image": "shopimg.webp",
        "specialty": [
            "اسبيرات"
        ],
        "phone": "+249912883180",
        "whatsapp": "+24991288318",
        "isFeatured": false,
        "googleMapsUrl": "https://maps.google.com/?cid=2430011657442725193"
    },
    {
        "id": 293,
        "name": "الثنائي للاسبيرات الكوريه",
        "location": {
            "state": "النيل الأبيض",
            "city": "ربك",
            "address": ""
        },
        "image": "shopimg.webp",
        "specialty": [
            "اسبيرات","كوري"
        ],
        "phone": "nan",
        "whatsapp": "nan",
        "isFeatured": false,
        "googleMapsUrl": "https://maps.google.com/?cid=2447649333164593490"
    },
    {
        "id": 294,
        "name": "الامين مبارك سرور لاسبيرات السيارات",
        "location": {
            "state": "النيل الأبيض",
            "city": "ربك",
            "address": ""
        },
        "image": "shopimg.webp",
        "specialty": [
            "اسبيرات"
        ],
        "phone": "nan",
        "whatsapp": "nan",
        "isFeatured": false,
        "googleMapsUrl": "https://maps.google.com/?cid=4162709278814392722"
    },
    {
        "id": 295,
        "name": "عبدالإله للاسبيرات اليابانيه",
        "location": {
            "state": "النيل الأبيض",
            "city": "ربك",
            "address": ""
        },
        "image": "shopimg.webp",
        "specialty": [
            "اسبيرات"
        ],
        "phone": "nan",
        "whatsapp": "nan",
        "isFeatured": false,
        "googleMapsUrl": "https://maps.google.com/?cid=15183896553359534818"
    },
    {
        "id": 296,
        "name": "المهندس لاسبيرات المواتر والزينه",
        "location": {
            "state": "النيل الأبيض",
            "city": "ربك",
            "address": ""
        },
        "image": "shopimg.webp",
        "specialty": [
            "اسبيرات"
        ],
        "phone": "nan",
        "whatsapp": "nan",
        "isFeatured": false,
        "googleMapsUrl": "https://maps.google.com/?cid=8169502689420899388"
    },
    {
        "id": 297,
        "name": "ابو يوسف لاسبيرات المواتر والزينه",
        "location": {
            "state": "النيل الأبيض",
            "city": "ربك",
            "address": ""
        },
        "image": "shopimg.webp",
        "specialty": [
            "اسبيرات"
        ],
        "phone": "nan",
        "whatsapp": "nan",
        "isFeatured": false,
        "googleMapsUrl": "https://maps.google.com/?cid=12818274213564501206"
    },
    {
        "id": 298,
        "name": "مصطفى دبويه لاسبيرات الميتسوبيشي",
        "location": {
            "state": "البحر الأحمر",
            "city": "سواكن",
            "address": ""
        },
        "image": "shopimg.webp",
        "specialty": [
            "اسبيرات"
        ],
        "phone": "nan",
        "whatsapp": "nan",
        "isFeatured": false,
        "googleMapsUrl": "https://maps.google.com/?cid=13851463894240346424"
    },
    {
        "id": 299,
        "name": "بلال للزيوت والاسبيرات",
        "location": {
            "state": "البحر الأحمر",
            "city": "سواكن",
            "address": ""
        },
        "image": "shopimg.webp",
        "specialty": [
            "اسبيرات","زيوت"
        ],
        "phone": "+249917179846",
        "whatsapp": "+249917179846",
        "isFeatured": false,
        "googleMapsUrl": "https://maps.google.com/?cid=5854970541419955349"
    },
    {
        "id": 300,
        "name": "ود الحاج لي اسبيرات المواتر والزيوت والشحوم",
        "location": {
            "state": "البحر الأحمر",
            "city": "سواكن",
            "address": ""
        },
        "image": "shopimg.webp",
        "specialty": [
            "اسبيرات","زيوت"
        ],
        "phone": "nan",
        "whatsapp": "nan",
        "isFeatured": false,
        "googleMapsUrl": "https://maps.google.com/?cid=12800782376002589519"
    },
    {
        "id": 301,
        "name": "مربيع لقطع الغيار",
        "location": {
            "state": "البحر الأحمر",
            "city": "سواكن",
            "address": ""
        },
        "image": "shopimg.webp",
        "specialty": [
            "اسبيرات"
        ],
        "phone": "nan",
        "whatsapp": "nan",
        "isFeatured": false,
        "googleMapsUrl": "https://maps.google.com/?cid=8513138638925696233"
    },
    {
        "id": 302,
        "name": "ابوخالد للإسبيرات الكورية الأصلية",
        "location": {
            "state": "الجزيرة",
            "city": "المناقل",
            "address": ""
        },
        "image": "shopimg.webp",
        "specialty": [
            "اسبيرات",
            "كوري"
        ],
        "phone": "+249110889242",
        "whatsapp": "+249110889242",
        "isFeatured": false,
        "googleMapsUrl": "https://maps.google.com/?cid=1961394112822219314"
    },
    {
        "id": 303,
        "name": "محمد ايهاب لقطع الغيار",
        "location": {
            "state": "الجزيرة",
            "city": "المناقل",
            "address": ""
        },
        "image": "shopimg.webp",
        "specialty": [
            "اسبيرات"
        ],
        "phone": "nan",
        "whatsapp": "nan",
        "isFeatured": false,
        "googleMapsUrl": "https://maps.google.com/?cid=4414882015998090939"
    },
    {
        "id": 304,
        "name": "المانجيل لقطع غيار السيارات",
        "location": {
            "state": "الجزيرة",
            "city": "المناقل",
            "address": ""
        },
        "image": "shopimg.webp",
        "specialty": [
            "اسبيرات"
        ],
        "phone": "nan",
        "whatsapp": "nan",
        "isFeatured": false,
        "googleMapsUrl": "https://maps.google.com/?cid=5701288883330628535"
    },
    {
        "id": 305,
        "name": "اولاد كدوك 1 لاسبيرات المواتر والتكاتك",
        "location": {
            "state": "الجزيرة",
            "city": "المناقل",
            "address": ""
        },
        "image": "shopimg.webp",
        "specialty": [
            "اسبيرات"
        ],
        "phone": "nan",
        "whatsapp": "nan",
        "isFeatured": false,
        "googleMapsUrl": "https://maps.google.com/?cid=3582402043632683999"
    },
    {
        "id": 306,
        "name": "المجري لاسبيرات الركشات",
        "location": {
            "state": "الخرطوم",
            "city": "الخرطوم",
            "address": ""
        },
        "image": "shopimg.webp",
        "specialty": [
            "اسبيرات"
        ],
        "phone": "+249911181711",
        "whatsapp": "+249911181711",
        "isFeatured": false,
        "googleMapsUrl": "https://maps.google.com/?cid=1102210615801878140"
    },
    {
        "id": 307,
        "name": "البروف لاسبيرات الركشات",
        "location": {
            "state": "الجزيرة",
            "city": "المناقل",
            "address": ""
        },
        "image": "shopimg.webp",
        "specialty": [
            "اسبيرات"
        ],
        "phone": "nan",
        "whatsapp": "nan",
        "isFeatured": false,
        "googleMapsUrl": "https://maps.google.com/?cid=3719120755150204786"
    },
    {
        "id": 308,
        "name": "اسبيرات احمد عجبنا",
        "location": {
            "state": "النيل الأبيض",
            "city": "الدويم",
            "address": ""
        },
        "image": "shopimg.webp",
        "specialty": [
            "اسبيرات"
        ],
        "phone": "nan",
        "whatsapp": "nan",
        "isFeatured": false,
        "googleMapsUrl": "https://maps.google.com/?cid=1461212646718659554"
    },
    {
        "id": 309,
        "name": "اولاد بشير الأنصاري لاسبيرات التراكترات",
        "location": {
            "state": "النيل الأبيض",
            "city": "الدويم",
            "address": ""
        },
        "image": "shopimg.webp",
        "specialty": [
            "اسبيرات"
        ],
        "phone": "+249910527211",
        "whatsapp": "+249910527211",
        "isFeatured": false,
        "googleMapsUrl": "https://maps.google.com/?cid=16197210237987397545"
    },
    {
        "id": 310,
        "name": "الاخوان لاسبيرات المواتر والتكاتك",
        "location": {
            "state": "النيل الأبيض",
            "city": "الدويم",
            "address": ""
        },
        "image": "shopimg.webp",
        "specialty": [
            "اسبيرات",
            "مواتر",
            "تكاتك"
        ],
        "phone": "nan",
        "whatsapp": "nan",
        "isFeatured": false,
        "googleMapsUrl": "https://maps.google.com/?cid=7578353762978284984"
    },
    {
        "id": 311,
        "name": "وليد السر لقطع الغيار الكوري",
        "location": {
            "state": "النيل الأبيض",
            "city": "الدويم",
            "address": ""
        },
        "image": "shopimg.webp",
        "specialty": [
            "اسبيرات",
            "كوري"
        ],
        "phone": "+249919814111",
        "whatsapp": "+249919814111",
        "isFeatured": false,
        "googleMapsUrl": "https://maps.google.com/?cid=14011241875557355246"
    },
    {
        "id": 312,
        "name": "عبدالله الطيب لقطع الغيار",
        "location": {
            "state": "النيل الأبيض",
            "city": "الدويم",
            "address": ""
        },
        "image": "shopimg.webp",
        "specialty": [
            "اسبيرات"
        ],
        "phone": "nan",
        "whatsapp": "nan",
        "isFeatured": false,
        "googleMapsUrl": "https://maps.google.com/?cid=3995814665979137309"
    },
    {
        "id": 313,
        "name": "ود الحاوي لقطع الغيار",
        "location": {
            "state": "النيل الأبيض",
            "city": "الدويم",
            "address": ""
        },
        "image": "shopimg.webp",
        "specialty": [
            "اسبيرات"
        ],
        "phone": "nan",
        "whatsapp": "nan",
        "isFeatured": false,
        "googleMapsUrl": "https://maps.google.com/?cid=11230977650666220237"
    },
    {
        "id": 314,
        "name": "عماد الدين لقطع الغيار الاصلية",
        "location": {
            "state": "النيل الأبيض",
            "city": "الدويم",
            "address": ""
        },
        "image": "shopimg.webp",
        "specialty": [
            "اسبيرات"
        ],
        "phone": "nan",
        "whatsapp": "nan",
        "isFeatured": false,
        "googleMapsUrl": "https://maps.google.com/?cid=9652736435319005950"
    },
    {
        "id": 315,
        "name": "الشاذلي لقطع الغيار",
        "location": {
            "state": "النيل الأبيض",
            "city": "الدويم",
            "address": ""
        },
        "image": "shopimg.webp",
        "specialty": [
            "اسبيرات"
        ],
        "phone": "nan",
        "whatsapp": "nan",
        "isFeatured": false,
        "googleMapsUrl": "https://maps.google.com/?cid=9927707474722605033"
    },
    {
        "id": 316,
        "name": "عبدالباقي للاسبيرات",
        "location": {
            "state": "النيل الأبيض",
            "city": "الدويم",
            "address": ""
        },
        "image": "shopimg.webp",
        "specialty": [
            "اسبيرات"
        ],
        "phone": "nan",
        "whatsapp": "nan",
        "isFeatured": false,
        "googleMapsUrl": "https://maps.google.com/?cid=5694255088704614311"
    },
    {
        "id": 317,
        "name": "الاخوة للاسبيرات",
        "location": {
            "state": "النيل الأزرق",
            "city": "الدمازين",
            "address": ""
        },
        "image": "shopimg.webp",
        "specialty": [
            "اسبيرات"
        ],
        "phone": "+249123832432",
        "whatsapp": "+249123832432",
        "isFeatured": false,
        "googleMapsUrl": "https://maps.google.com/?cid=3214485594995381783"
    },
    {
        "id": 318,
        "name": "ود كوش لاسبيرات الميتسوبيشي",
        "location": {
            "state": "النيل الأزرق",
            "city": "الدمازين",
            "address": ""
        },
        "image": "shopimg.webp",
        "specialty": [
            "اسبيرات",
            "ياباني",
            "ميتسوبيشي"
        ],
        "phone": "nan",
        "whatsapp": "nan",
        "isFeatured": false,
        "googleMapsUrl": "https://maps.google.com/?cid=9453343843084196104"
    },
    {
        "id": 319,
        "name": "المحمود لقطع غيار السيارات والزجاج",
        "location": {
            "state": "شمال كردفان",
            "city": "الأبيض",
            "address": ""
        },
        "image": "shopimg.webp",
        "specialty": [
            "اسبيرات",
            "زجاج"
        ],
        "phone": "+249912358038",
        "whatsapp": "+249912358038",
        "isFeatured": false,
        "googleMapsUrl": "https://maps.google.com/?cid=13742873604769353112"
    },
    {
        "id": 320,
        "name": "مساعد للاسبيرات والزيوت",
        "location": {
            "state": "النيل الأزرق",
            "city": "الدمازين",
            "address": ""
        },
        "image": "shopimg.webp",
        "specialty": [
            "اسبيرات","زيوت"
        ],
        "phone": "nan",
        "whatsapp": "nan",
        "isFeatured": false,
        "googleMapsUrl": "https://maps.google.com/?cid=4957951524105778287"
    },
    {
        "id": 321,
        "name": "الضرغام للاسبيرات الكورية واليابانية",
        "location": {
            "state": "الشمالية",
            "city": "دنقلا",
            "address": ""
        },
        "image": "shopimg.webp",
        "specialty": [
            "اسبيرات","كوري"
        ],
        "phone": "+249122533747",
        "whatsapp": "+249122533747",
        "isFeatured": false,
        "googleMapsUrl": "https://maps.google.com/?cid=5679256232271992232"
    },
    {
        "id": 322,
        "name": "ابو حزيفة لاسبيرات الماسي فورجيسون",
        "location": {
            "state": "النيل الأزرق",
            "city": "الدمازين",
            "address": ""
        },
        "image": "shopimg.webp",
        "specialty": [
            "اسبيرات"
        ],
        "phone": "+249907000817",
        "whatsapp": "+249907000817",
        "isFeatured": false,
        "googleMapsUrl": "https://maps.google.com/?cid=11999208108449988063"
    },
    {
        "id": 323,
        "name": "جدونا لقطع الغيار",
        "location": {
            "state": "القضارف",
            "city": "الشلال",
            "address": ""
        },
        "image": "shopimg.webp",
        "specialty": [
            "اسبيرات"
        ],
        "phone": "nan",
        "whatsapp": "nan",
        "isFeatured": false,
        "googleMapsUrl": "https://maps.google.com/?cid=9700413301171107342"
    },
    {
        "id": 324,
        "name": "طلبكو لجميع قطع غيار السيارات",
        "location": {
            "state": "الشمالية",
            "city": "دنقلا",
            "address": ""
        },
        "image": "shopimg.webp",
        "specialty": [
            "اسبيرات"
        ],
        "phone": "+249123116411",
        "whatsapp": "+249123116411",
        "isFeatured": false,
        "googleMapsUrl": "https://maps.google.com/?cid=17885967409425690035"
    },
    {
        "id": 325,
        "name": "اسبيرات النيل",
        "location": {
            "state": "نهر النيل",
            "city": "الدامر",
            "address": ""
        },
        "image": "shopimg.webp",
        "specialty": [
            "اسبيرات"
        ],
        "phone": "+2491+24908272",
        "whatsapp": "+2491+24908272",
        "isFeatured": false,
        "googleMapsUrl": "https://maps.google.com/?cid=7689259088412268304"
    },
    {
        "id": 326,
        "name": "ابوشيبة للاسبيرات",
        "location": {
            "state": "النيل الأزرق",
            "city": "الدمازين",
            "address": ""
        },
        "image": "shopimg.webp",
        "specialty": [
            "اسبيرات"
        ],
        "phone": "nan",
        "whatsapp": "nan",
        "isFeatured": false,
        "googleMapsUrl": "https://maps.google.com/?cid=10387450582342633730"
    },
    {
        "id": 327,
        "name": "ابوشراء للزيوت والاسبيرات",
        "location": {
            "state": "النيل الأزرق",
            "city": "الدمازين",
            "address": ""
        },
        "image": "shopimg.webp",
        "specialty": [
            "اسبيرات","زيوت"
        ],
        "phone": "nan",
        "whatsapp": "nan",
        "isFeatured": false,
        "googleMapsUrl": "https://maps.google.com/?cid=1784397566616969387"
    },
    {
        "id": 328,
        "name": "مجموعة سابينتود لقطع الغيار",
        "location": {
            "state": "الخرطوم",
            "city": "أم درمان",
            "address": "شارع الأردأ"
        },
        "image": "shopimg.webp",
        "specialty": [
            "اسبيرات"
        ],
        "phone": "+249915666662",
        "whatsapp": "+249915666662",
        "isFeatured": false,
        "googleMapsUrl": "https://maps.google.com/?cid=4313916918049968638"
    },
    {
        "id": 329,
        "name": "أعمال سيف الدين عمر للاسبيرات",
        "location": {
            "state": "النيل الأزرق",
            "city": "الدمازين",
            "address": ""
        },
        "image": "shopimg.webp",
        "specialty": [
            "اسبيرات"
        ],
        "phone": "nan",
        "whatsapp": "nan",
        "isFeatured": false,
        "googleMapsUrl": "https://maps.google.com/?cid=14113091771662626151"
    },
    {
        "id": 330,
        "name": "ابو القاسم محمد عبدالله للاسبيرات اليابانية",
        "location": {
            "state": "النيل الأزرق",
            "city": "الدمازين",
            "address": "سوق الكودة"
        },
        "image": "shopimg.webp",
        "specialty": [
            "اسبيرات"
        ],
        "phone": "nan",
        "whatsapp": "nan",
        "isFeatured": false,
        "googleMapsUrl": "https://maps.google.com/?cid=5657508913999634731"
    },
    {
        "id": 331,
        "name": "اولاد بشير الأنصاري لاسبيرات التراكترات",
        "location": {
            "state": "النيل الأبيض",
            "city": "الدويم",
            "address": ""
        },
        "image": "shopimg.webp",
        "specialty": [
            "اسبيرات"
        ],
        "phone": "+249910527211",
        "whatsapp": "+249910527211",
        "isFeatured": false,
        "googleMapsUrl": "https://maps.google.com/?cid=16197210237987397545"
    },
    {
        "id": 332,
        "name": "النعيم للاسبيرات الماسي الاصليه",
        "location": {
            "state": "النيل الأزرق",
            "city": "الدمازين",
            "address": ""
        },
        "image": "shopimg.webp",
        "specialty": [
            "اسبيرات"
        ],
        "phone": "+249916682659",
        "whatsapp": "+249916682659",
        "isFeatured": false,
        "googleMapsUrl": "https://maps.google.com/?cid=2976523657836733747"
    },
    {
        "id": 333,
        "name": "إطارات الحاجقاب",
        "location": {
            "state": "النيل الأزرق",
            "city": "الدمازين",
            "address": ""
        },
        "image": "shopimg.webp",
        "specialty": [
            "اطارات"
        ],
        "phone": "nan",
        "whatsapp": "nan",
        "isFeatured": false,
        "googleMapsUrl": "https://maps.google.com/?cid=463920143717114831"
    }
]
